Name,global_id,AdmArea,District,Location,lon,lat,Material
"Искусственная дорожная неровность по адресу Борисовский проезд, дом 20",1711216,Южный административный округ,район Орехово-Борисово Северное,"Борисовский проезд, дом 20",37.7264106642299,55.6256708883571,пластик
"Искусственная дорожная неровность по адресу Ореховый проезд, дом 43А",1711244,Южный административный округ,район Зябликово,"Ореховый проезд, дом 43А",37.7294605021117,55.6149675365588,пластик
"Искусственная дорожная неровность по адресу улица Кошкина, дом 6",1711314,Южный административный округ,район Москворечье-Сабурово,"улица Кошкина, дом 6",37.67217137103,55.6429374062292,пластик
"Искусственная дорожная неровность по адресу улица Москворечье, дом 47, корпус 1",1711318,Южный административный округ,район Москворечье-Сабурово,"улица Москворечье, дом 47, корпус 1",37.666793373918,55.6443274763358,пластик
"Искусственная дорожная неровность по адресу Артековская улица, дом 3",1711323,Южный административный округ,Нагорный район,"Артековская улица, дом 3",37.6131946253298,55.6509328061719,пластик
"Искусственная дорожная неровность по адресу улица Лобанова, дом 3",1711364,Южный административный округ,Даниловский район,"улица Лобанова, дом 3",37.6593601383354,55.7015674733892,пластик
"Искусственная дорожная неровность на УДС 1-го Автозаводского проезда с привязкой к адресу Автозаводская улица, дом 15/2",1711369,Южный административный округ,Даниловский район,"Автозаводская улица, дом 15/2",37.6564011578581,55.705010446809,пластик
"Искусственная дорожная неровность по адресу улица Полбина, дом 18",1711401,Юго-Восточный административный округ,район Печатники,"улица Полбина, дом 18",37.7288117468983,55.687751530227,пластик
"Искусственная дорожная неровность по адресу Нагатинская набережная, дом 56",1711407,Южный административный округ,район Нагатинский Затон,"Нагатинская набережная, дом 56",37.6886289049888,55.6907491563049,пластик
"Искусственная дорожная неровность по адресу улица Бахрушина, дом 25",1711424,Центральный административный округ,район Замоскворечье,"улица Бахрушина, дом 25",37.636858,55.732977,пластик
"Искусственная дорожная неровность по адресу Автозаводская улица, дом 7",1711430,Южный административный округ,Даниловский район,"Автозаводская улица, дом 7",37.6604204486113,55.7081910281382,пластик
"Искусственная дорожная неровность по адресу Малая Тульская улица, дом 15",1711433,Южный административный округ,Даниловский район,"Малая Тульская улица, дом 15",37.6187783159806,55.7091301405032,пластик
"Искусственная дорожная неровность по адресу Святоозерская улица, дом 16",1711443,Восточный административный округ,район Косино-Ухтомский,"Святоозерская улица, дом 16",37.8900577692444,55.7132215806286,пластик
"Искусственная дорожная неровность по адресу Восточная улица, дом 4А, строение 38",1711446,Южный административный округ,Даниловский район,"Восточная улица, дом 4А, строение 38",37.6604097209302,55.7156533295377,пластик
"Искусственная дорожная неровность по адресу Большой Факельный переулок, дом 23",1711454,Центральный административный округ,Таганский район,"Большой Факельный переулок, дом 23",37.6680759785992,55.7408963997781,пластик
"Искусственная дорожная неровность по адресу Новорогожская улица, дом 4, строение 1",1711457,Центральный административный округ,Таганский район,"Новорогожская улица, дом 4, строение 1",37.6813309520947,55.7420914760396,пластик
"Искусственная дорожная неровность по адресу Гончарная улица, дом 34",1711458,Центральный административный округ,Таганский район,"Гончарная улица, дом 34",37.6500974666087,55.7421277893199,пластик
"Искусственная дорожная неровность по адресу Рабочая улица, дом 10",1711461,Центральный административный округ,Таганский район,"Рабочая улица, дом 13",37.6826244470521,55.7444408570811,пластик
"Искусственная дорожная неровность по адресу Библиотечная улица, дом 29",1711462,Центральный административный округ,Таганский район,"Библиотечная улица, дом 25",37.6754894359742,55.7446424635984,пластик
"Искусственная дорожная неровность по адресу Гагаринский переулок, дом 20",1711463,Центральный административный округ,район Хамовники,"Гагаринский переулок, дом 20",37.5923672770956,55.7448236426049,пластик
"Искусственная дорожная неровность по адресу 3-й Лесной переулок, дом 12",1711466,Центральный административный округ,Тверской район,"3-й Лесной переулок, дом 12",37.5876392155832,55.779000441852,пластик
"Искусственная дорожная неровность по адресу Измайловское шоссе, дом 13",1711467,Восточный административный округ,район Соколиная Гора,"Измайловское шоссе, дом 13",37.7240981051429,55.7792513760865,пластик
"Искусственная дорожная неровность по адресу 4-й Лесной переулок, дом 6",1711468,Центральный административный округ,Тверской район,"4-й Лесной переулок, дом 11",37.5874569914295,55.7797994368356,пластик
"Искусственная дорожная неровность по адресу 2-я Леснорядская улица, дом 10, строение 1",1711474,Центральный административный округ,Красносельский район,"2-я Леснорядская улица, дом 10, строение 1",37.675022,55.782102,пластик
"Искусственная дорожная неровность по адресу улица Большая Молчановка, дом 26-28",1711483,Центральный административный округ,район Арбат,"улица Большая Молчановка, дом 26",37.590034090893,55.7532875844932,пластик
"Искусственная дорожная неровность по адресу Калашный переулок, дом 3",1711486,Центральный административный округ,Пресненский район,"Калашный переулок, дом 3",37.601641,55.754936,пластик
"Искусственная дорожная неровность по адресу Мантулинская улица, дом 16",1711490,Центральный административный округ,Пресненский район,"Мантулинская улица, дом 16",37.55193314496,55.7560993195084,пластик
"Искусственная дорожная неровность по адресу 2-я Звенигородская улица, дом 8",1711496,Центральный административный округ,Пресненский район,"2-я Звенигородская улица, дом 8",37.5549504620319,55.7595068386155,пластик
"Искусственная дорожная неровность по адресу Большой Казённый переулок, дом 9",1711498,Центральный административный округ,Басманный район,"Большой Казённый переулок, дом 9",37.6556338825194,55.760167381314,пластик
"Искусственная дорожная неровность по адресу улица Металлургов, дом 60, корпус 1",1711499,Восточный административный округ,район Перово,"улица Металлургов, дом 60, корпус 1",37.808604,55.760147,пластик
"Искусственная дорожная неровность по адресу 3-я Владимирская улица, дом 5",1711501,Восточный административный округ,район Перово,"3-я Владимирская улица, дом 5",37.7857988014994,55.762101867543,пластик
"Искусственная дорожная неровность по адресу Большой Козихинский переулок, дом 5",1711502,Центральный административный округ,Пресненский район,"Большой Козихинский переулок, дом 5",37.597793,55.762409,пластик
"Искусственная дорожная неровность по адресу Староконюшенный переулок, дом 18",1711506,Центральный административный округ,район Хамовники,"Староконюшенный переулок, дом 18",37.595242,55.746587,пластик
"Искусственная дорожная неровность по адресу улица Климашкина, дом 13",1711516,Центральный административный округ,Пресненский район,"улица Климашкина, дом 13",37.5695733630926,55.7677784768528,пластик
"Искусственная дорожная неровность по адресу Большой Тишинский переулок, дом 1, строение 3",1711517,Центральный административный округ,Пресненский район,"Большой Тишинский переулок, дом 1, строение 3",37.5780229912152,55.7688049834603,пластик
"Искусственная дорожная неровность по адресу Просвирин переулок, дом 5",1711518,Центральный административный округ,Красносельский район,"Просвирин переулок, дом 5",37.6330074369433,55.7688055519594,пластик
"Искусственная дорожная неровность по адресу Старопименовский переулок, дом 5",1711519,Центральный административный округ,Тверской район,"Старопименовский переулок, дом 6",37.6010363456758,55.76904511573,пластик
"Искусственная дорожная неровность по адресу Большой Тишинский переулок, дом 39",1711521,Центральный административный округ,Пресненский район,"Большой Тишинский переулок, дом 39",37.569792298697,55.7693225749571,пластик
"Искусственная дорожная неровность по адресу Лефортовский переулок, дом 8",1711524,Центральный административный округ,Басманный район,"Лефортовский переулок, дом 8",37.6780041743907,55.7698895832971,пластик
"Искусственная дорожная неровность по адресу Госпитальный переулок, дом 4",1711526,Центральный административный округ,Басманный район,"Госпитальный переулок, дом 4",37.6872039847087,55.7706685431445,пластик
"Искусственная дорожная неровность по адресу Средний Кондратьевский переулок, дом 8",1711528,Центральный административный округ,Пресненский район,"Средний Кондратьевский переулок, дом 8",37.5787867505478,55.7722601491668,пластик
"Искусственная дорожная неровность по адресу Большой Каретный переулок, дом 22",1711529,Центральный административный округ,Тверской район,"Большой Каретный переулок, дом 22",37.6160253668087,55.7723647552113,пластик
"Искусственная дорожная неровность по адресу Большой Кондратьевский переулок, дом 3",1711530,Центральный административный округ,Пресненский район,"Большой Кондратьевский переулок, дом 3",37.5828177759937,55.7725548778465,пластик
"Искусственная дорожная неровность по адресу Рубцов переулок, дом 10/14",1711533,Центральный административный округ,Басманный район,"Рубцов переулок, дом 10/14",37.6921322088327,55.7732100002338,пластик
"Искусственная дорожная неровность по адресу Вольная улица, дом 4",1711537,Восточный административный округ,район Соколиная Гора,"Вольная улица, дом 4",37.7259525162485,55.7761380220079,пластик
"Искусственная дорожная неровность по адресу Ленинградский проспект, дом 49",1711556,Северный административный округ,Хорошёвский район,"Ленинградский проспект, дом 49",37.5293013382383,55.7999853919313,пластик
"Искусственная дорожная неровность по адресу улица Олений Вал, дом 22, корпус 1",1711557,Восточный административный округ,район Сокольники,"улица Олений Вал, дом 22, корпус 1",37.692064,55.800227,пластик
"Искусственная дорожная неровность по адресу Живописная улица, дом 48",1711559,Северо-Западный административный округ,район Щукино,"Живописная улица, дом 48",37.4504708824262,55.8008636482154,пластик
"Искусственная дорожная неровность по адресу улица Маршала Василевского, дом 3, корпус 2",1711563,Северо-Западный административный округ,район Щукино,"улица Маршала Василевского, дом 3, корпус 2",37.4719773363539,55.8020016430617,пластик
"Искусственная дорожная неровность по адресу улица Генерала Глаголева, дом 25, корпус 1",1711571,Северо-Западный административный округ,район Хорошёво-Мнёвники,"улица Генерала Глаголева, дом 25, корпус 1",37.4651294897228,55.7878731128151,пластик
"Искусственная дорожная неровность по адресу Малая Переяславская улица, дом 6/8",1711573,Центральный административный округ,Мещанский район,"Малая Переяславская улица, дом 6",37.637273,55.78943,пластик
"Искусственная дорожная неровность по адресу улица Девятая Рота, дом 14",1711580,Восточный административный округ,район Преображенское,"улица Девятая Рота, дом 14",37.7124388791552,55.7913215787739,пластик
"Искусственная дорожная неровность по адресу улица Павла Корчагина, дом 4",1711584,Северо-Восточный административный округ,Алексеевский район,"улица Павла Корчагина, дом 4",37.6562915292575,55.8132118265571,пластик
"Искусственная дорожная неровность по адресу улица Исаковского, дом 14",1711587,Северо-Западный административный округ,район Строгино,"улица Исаковского, дом 12, корпус 1",37.4093348498467,55.8135330473812,пластик
"Искусственная дорожная неровность по адресу улица Гончарова, дом 15",1711591,Северо-Восточный административный округ,Бутырский район,"улица Гончарова, дом 15",37.5870861785583,55.8152948746696,пластик
"Искусственная дорожная неровность на УДС улицы Гончарова с привязкой к адресу улица Руставели, дом 7, строение 2",1711592,Северо-Восточный административный округ,Бутырский район,"улица Руставели, дом 7, строение 2",37.588388,55.815459,пластик
"Искусственная дорожная неровность по адресу улица Гончарова, дом 17, корпус 1",1711593,Северо-Восточный административный округ,Бутырский район,"улица Гончарова, дом 17, корпус 1",37.589646,55.815598,пластик
"Искусственная дорожная неровность по адресу 4-я улица Марьиной Рощи, дом 1",1711598,Северо-Восточный административный округ,район Марьина Роща,"4-я улица Марьиной Рощи, дом 1",37.624123,55.793462,пластик
"Искусственная дорожная неровность по адресу улица Сальвадора Альенде, дом 9",1711602,Северный административный округ,район Сокол,"улица Сальвадора Альенде, дом 9",37.5065469860404,55.7943485256427,пластик
"Искусственная дорожная неровность по адресу 2-я Пугачёвская улица, дом 6",1711604,Восточный административный округ,район Преображенское,"2-я Пугачёвская улица, дом 6",37.7292816430471,55.7955701053081,пластик
"Искусственная дорожная неровность по адресу Петровско-Разумовский проезд, дом 9",1711606,Северный административный округ,Савёловский район,"Петровско-Разумовский проезд, дом 9",37.568708,55.796252,пластик
"Искусственная дорожная неровность по адресу Вятская улица, дом 29",1711611,Северный административный округ,Савёловский район,"Вятская улица, дом 29",37.5820650812104,55.7978262542074,пластик
"Искусственная дорожная неровность по адресу 3-я Новоостанкинская улица, дом 4",1711619,Северо-Восточный административный округ,Останкинский район,"3-я Новоостанкинская улица, дом 4",37.6249750627954,55.8174232193659,пластик
"Искусственная дорожная неровность по адресу улица Годовикова, дом 4, строение 2",1711620,Северо-Восточный административный округ,Останкинский район,"улица Годовикова, дом 4, строение 2",37.6312058341999,55.8040741611691,пластик
"Искусственная дорожная неровность по адресу 2-я Новоостанкинская улица, дом 10А",1711627,Северо-Восточный административный округ,Останкинский район,"2-я Новоостанкинская улица, дом 10А",37.6259701625683,55.8158773582047,пластик
"Искусственная дорожная неровность по адресу улица Гончарова, дом 17, корпус 2",1711630,Северо-Восточный административный округ,Бутырский район,"улица Гончарова, дом 17, корпус 2",37.5881402868655,55.8164597270313,пластик
"Искусственная дорожная неровность по адресу улица Исаковского, дом 29",1711635,Северо-Западный административный округ,район Строгино,"улица Исаковского, дом 29",37.417719098583,55.8070148601176,пластик
"Искусственная дорожная неровность по адресу Алымов переулок, дом 15",1711637,Восточный административный округ,район Богородское,"Алымов переулок, дом 15",37.713083279336,55.8072534388469,пластик
"Искусственная дорожная неровность по адресу 3-я Гражданская улица, дом 64",1711642,Восточный административный округ,район Богородское,"3-я Гражданская улица, дом 64",37.712830313752,55.809035000774,пластик
"Искусственная дорожная неровность по адресу Погонный проезд, дом 5, строение 2",1711647,Восточный административный округ,район Богородское,"Погонный проезд, дом 5, строение 2",37.705213344846,55.8206336803842,пластик
"Искусственная дорожная неровность по адресу улица Касаткина, дом 7",1711656,Северо-Восточный административный округ,Алексеевский район,"улица Касаткина, дом 7",37.6573022201904,55.8248498343107,пластик
"Искусственная дорожная неровность по адресу 1-я улица Леонова, дом 1",1711660,Северо-Восточный административный округ,район Ростокино,"1-я улица Леонова, дом 1",37.6458185097378,55.8430420966297,пластик
"Искусственная дорожная неровность по адресу 1-я улица Леонова, дом 16, строение 7",1711663,Северо-Восточный административный округ,район Ростокино,"1-я улица Леонова, дом 16, строение 7",37.6412694842581,55.8442494035113,пластик
"Искусственная дорожная неровность по адресу Отрадная улица, дом 15",1711682,Северо-Восточный административный округ,район Отрадное,"Отрадная улица, дом 15",37.615480715557,55.8554628273497,пластик
"Искусственная дорожная неровность по адресу Отрадная улица, дом 11",1711683,Северо-Восточный административный округ,район Отрадное,"Отрадная улица, дом 11",37.6136866523738,55.8560169789487,пластик
"Искусственная дорожная неровность по адресу Вересковая улица, дом 5",1711690,Северо-Восточный административный округ,район Свиблово,"Вересковая улица, дом 5",37.6400034813417,55.8596187197826,пластик
"Искусственная дорожная неровность по адресу Радужная улица, дом 14, корпус 1",1711692,Северо-Восточный административный округ,Бабушкинский район,"Радужная улица, дом 14, корпус 1",37.6668631227099,55.860098600517,пластик
"Искусственная дорожная неровность по адресу Радужная улица, дом 10",1711693,Северо-Восточный административный округ,Бабушкинский район,"Радужная улица, дом 10",37.6695453313499,55.8603303422651,пластик
"Искусственная дорожная неровность по адресу Вересковая улица, дом 10",1711694,Северо-Восточный административный округ,район Свиблово,"Вересковая улица, дом 10",37.6415484345101,55.8604538481325,пластик
"Искусственная дорожная неровность 1 по адресу улица Вешних Вод, дом 8, корпус 1",1711695,Северо-Восточный административный округ,Ярославский район,"улица Вешних Вод, дом 10, строение 6",37.6996772684985,55.8608617140166,пластик
"Искусственная дорожная неровность по адресу улица Вилиса Лациса, дом 25",1711698,Северо-Западный административный округ,район Северное Тушино,"улица Вилиса Лациса, дом 25",37.4202350128941,55.8620263171869,пластик
"Искусственная дорожная неровность по адресу Пяловская улица, дом 21",1711699,Северный административный округ,район Западное Дегунино,"Пяловская улица, дом 21",37.5354432653628,55.8620952338291,пластик
"Искусственная дорожная неровность по адресу улица Коминтерна, дом 7",1711703,Северо-Восточный административный округ,Бабушкинский район,"улица Коминтерна, дом 7",37.6784809435496,55.8634324236771,пластик
"Искусственная дорожная неровность по адресу Алтуфьевское шоссе, дом 30Г",1711709,Северо-Восточный административный округ,район Отрадное,"Алтуфьевское шоссе, дом 30Г",37.585002608122,55.8650133416097,пластик
"Искусственная дорожная неровность по адресу 2-й Сельскохозяйственный проезд, дом 4",1711726,Северо-Восточный административный округ,район Ростокино,"2-й Сельскохозяйственный проезд, дом 4",37.6438658606693,55.833359338677,пластик
"Искусственная дорожная неровность по адресу улица Докукина, дом 3, корпус 1",1711731,Северо-Восточный административный округ,район Ростокино,"улица Докукина, дом 3, корпус 1",37.6557534123511,55.8372344231207,пластик
"Искусственная дорожная неровность по адресу улица Павла Корчагина, дом 13",1711741,Северо-Восточный административный округ,Алексеевский район,"улица Павла Корчагина, дом 13",37.66139,55.818065,пластик
"Искусственная дорожная неровность по адресу улица Павла Корчагина, дом 18",1711743,Северо-Восточный административный округ,Алексеевский район,"улица Павла Корчагина, дом 16",37.6615800065565,55.8182533253989,пластик
"Искусственная дорожная неровность по адресу улица Кондратюка, дом 5",1711744,Северо-Восточный административный округ,Останкинский район,"улица Кондратюка, дом 7, строение 6",37.6326327694012,55.8188838337362,пластик
"Искусственная дорожная неровность по адресу Илимская улица, дом 10",1711753,Северо-Восточный административный округ,район Лианозово,"Илимская улица, дом 10",37.581973389271,55.8899462837765,пластик
"Искусственная дорожная неровность по адресу Северодвинская улица, дом 13",1711759,Северо-Восточный административный округ,район Северное Медведково,"Северодвинская улица, дом 13",37.6810459741473,55.8927852338882,пластик
"Искусственная дорожная неровность по адресу Алтуфьевское шоссе, дом 56",1711765,Северо-Восточный административный округ,Алтуфьевский район,"Алтуфьевское шоссе, дом 56",37.5871782154507,55.8807901559731,пластик
"Искусственная дорожная неровность по адресу Заревый проезд, дом 2",1711770,Северо-Восточный административный округ,район Северное Медведково,"Заревый проезд, дом 2",37.6581030296386,55.8833699103847,пластик
"Искусственная дорожная неровность по адресу Стартовая улица, дом 1",1711775,Северо-Восточный административный округ,Лосиноостровский район,"Стартовая улица, дом 1",37.7086868084528,55.8856729610155,пластик
"Искусственная дорожная неровность по адресу улица Пришвина, дом 10",1711783,Северо-Восточный административный округ,район Бибирево,"улица Пришвина, дом 10",37.5968869734795,55.8890627810369,пластик
"Искусственная дорожная неровность по адресу Алтуфьевское шоссе, дом 80",1711784,Северо-Восточный административный округ,район Бибирево,"Алтуфьевское шоссе, дом 80",37.5874429166256,55.8941144814648,пластик
"Искусственная дорожная неровность по адресу Новгородская улица, дом 10",1711785,Северо-Восточный административный округ,район Лианозово,"Новгородская улица, дом 10",37.5797811864657,55.8945621056511,пластик
"Искусственная дорожная неровность по адресу Северный бульвар, дом 5 - дом 7",1711794,Северо-Восточный административный округ,район Отрадное,"Северный бульвар, дом 7",37.6052170753637,55.8671597843761,пластик
"Искусственная дорожная неровность по адресу Белозерская улица, дом 13",1711796,Северо-Восточный административный округ,район Бибирево,"Белозерская улица, дом 13",37.6151573436143,55.8966704462833,пластик
"Искусственная дорожная неровность по адресу Белозерская улица, дом 7",1711798,Северо-Восточный административный округ,район Бибирево,"Белозерская улица, дом 7",37.6109838264998,55.8982601809967,пластик
"Искусственная дорожная неровность по адресу Палехская улица, дом 13",1711805,Северо-Восточный административный округ,Ярославский район,"Палехская улица, дом 13",37.6993232154956,55.8681041067758,пластик
"Искусственная дорожная неровность по адресу улица Бестужевых, дом 1",1711806,Северо-Восточный административный округ,район Отрадное,"улица Бестужевых, дом 1",37.5969228477004,55.8684105465365,пластик
"Искусственная дорожная неровность 1 по адресу улица Римского-Корсакова, дом 10",1711808,Северо-Восточный административный округ,район Отрадное,"улица Римского-Корсакова, дом 10",37.5987909257748,55.8728618002669,пластик
"Искусственная дорожная неровность по адресу Палехская улица, дом 5",1711811,Северо-Восточный административный округ,Ярославский район,"Палехская улица, дом 15",37.7025633246393,55.8702516957395,пластик
"Искусственная дорожная неровность по адресу улица Бестужевых, дом 23",1711813,Северо-Восточный административный округ,район Отрадное,"улица Бестужевых, дом 23",37.6099411169152,55.8714681427283,пластик
"Искусственная дорожная неровность по адресу Путевой проезд, дом 12",1711819,Северо-Восточный административный округ,Алтуфьевский район,"Путевой проезд, дом 12",37.5792730750865,55.8736297763562,пластик
"Искусственная дорожная неровность по адресу Староватутинский проезд, дом 5, строение 2",1711820,Северо-Восточный административный округ,Бабушкинский район,"Староватутинский проезд, дом 5, строение 2",37.6733128297189,55.8738195877034,пластик
"Искусственная дорожная неровность по адресу Староватутинский проезд, дом 6",1711821,Северо-Восточный административный округ,Бабушкинский район,"Староватутинский проезд, дом 6",37.6719502686892,55.8740342825405,пластик
"Искусственная дорожная неровность по адресу улица Проходчиков, дом 2",1711822,Северо-Восточный административный округ,Ярославский район,"улица Проходчиков, дом 2",37.7202873627744,55.8742931839618,пластик
"Искусственная дорожная неровность по адресу улица Коминтерна, дом 52",1711823,Северо-Восточный административный округ,Лосиноостровский район,"улица Коминтерна, дом 52",37.6950764407697,55.8743298448256,пластик
"Искусственная дорожная неровность по адресу Бескудниковский бульвар, дом 50А",1711825,Северный административный округ,Бескудниковский район,"Бескудниковский бульвар, дом 50А",37.539253,55.875997,пластик
"Искусственная дорожная неровность по адресу улица Проходчиков, дом 10, корпус 1, строение 2",1711828,Северо-Восточный административный округ,Ярославский район,"улица Проходчиков, дом 10, корпус 1, строение 2",37.722107,55.876449,асфальт
"Искусственная дорожная неровность 1 по адресу Норильская улица, дом 4",1711829,Северо-Восточный административный округ,Лосиноостровский район,"Норильская улица, дом 4",37.6955788532367,55.8765586066137,пластик
"Искусственная дорожная неровность по адресу Лосевская улица, дом 20",1711831,Северо-Восточный административный округ,Ярославский район,"Лосевская улица, дом 20",37.7149014856407,55.8766976490505,пластик
"Искусственная дорожная неровность по адресу 2-я Напрудная улица, дом 11",1711835,Северо-Восточный административный округ,Лосиноостровский район,"2-я Напрудная улица, дом 11",37.6883737681767,55.8782643246808,пластик
"Искусственная дорожная неровность по адресу 1-я Напрудная улица, дом 11",1711837,Северо-Восточный административный округ,Лосиноостровский район,"1-я Напрудная улица, дом 11",37.6915657653505,55.8790317797123,пластик
"Искусственная дорожная неровность по адресу Базовская улица, дом 16",1711838,Северный административный округ,район Западное Дегунино,"Базовская улица, дом 16",37.511588,55.878055,пластик
"Искусственная дорожная неровность по адресу 8-я улица Соколиной Горы, дом 5А",1711841,Восточный административный округ,район Соколиная Гора,"8-я улица Соколиной Горы, дом 5А",37.733354,55.767638,пластик
"Искусственная дорожная неровность по адресу Большая Спасская улица, дом 15",1711848,Центральный административный округ,Красносельский район,"Большая Спасская улица, дом 15",37.640378,55.774524,пластик
"Искусственная дорожная неровность по адресу Зоологическая улица, дом 28",1711852,Центральный административный округ,Пресненский район,"Зоологическая улица, дом 28",37.585439,55.766406,пластик
"Искусственная дорожная неровность по адресу 2-я Напрудная улица, дом 13-15",1711861,Северо-Восточный административный округ,Лосиноостровский район,"2-я Напрудная улица, дом 13-15",37.689398,55.879282,пластик
"Искусственная дорожная неровность по адресу 2-й Троицкий переулок, дом 8/10",1711868,Центральный административный округ,Мещанский район,"2-й Троицкий переулок, дом 8/10",37.620966,55.776092,пластик
"Искусственная дорожная неровность по адресу 2-я Дубровская улица, дом 3",1711869,Центральный административный округ,Таганский район,"2-я Дубровская улица, дом 3",37.670827,55.728822,пластик
"Искусственная дорожная неровность по адресу 2-я Тверская-Ямская улица, дом 46",1711870,Центральный административный округ,Тверской район,"2-я Тверская-Ямская улица, дом 46",37.589844,55.774401,пластик
"Искусственная дорожная неровность по адресу 5-й Монетчиковский переулок, дом 7",1711882,Центральный административный округ,район Замоскворечье,"5-й Монетчиковский переулок, дом 7",37.631839,55.732398,пластик
"Искусственная дорожная неровность по адресу 13-я Парковая улица, дом 33",1711893,Восточный административный округ,район Северное Измайлово,"13-я Парковая улица, дом 33",37.811923,55.807578,пластик
"Искусственная дорожная неровность по адресу Новгородская улица, дом 28",1711896,Северо-Восточный административный округ,район Лианозово,"Новгородская улица, дом 28",37.5801048979716,55.9024008371756,пластик
"Искусственная дорожная неровность по адресу Новгородская улица, дом 30",1711898,Северо-Восточный административный округ,район Лианозово,"Новгородская улица, дом 30",37.5801421115805,55.902890087965,пластик
"Искусственная дорожная неровность по адресу Псковская улица, дом 10, корпус 1",1711899,Северо-Восточный административный округ,район Лианозово,"Псковская улица, дом 10, корпус 1",37.5496422119151,55.9033756574074,пластик
"Искусственная дорожная неровность по адресу Псковская улица, дом 11",1711903,Северо-Восточный административный округ,район Лианозово,"Псковская улица, дом 12, корпус 1",37.5524887053525,55.9054549934506,пластик
"Искусственная дорожная неровность по адресу Флотская улица, дом 28, корпус 1",1711914,Северный административный округ,район Левобережный,"Флотская улица, дом 28, корпус 1",37.4868,55.850334,пластик
"Искусственная дорожная неровность по адресу 15-я Парковая улица, дом 51",1711936,Восточный административный округ,район Северное Измайлово,"15-я Парковая улица, дом 51",37.817027,55.81019,пластик
"Искусственная дорожная неровность по адресу 3-я Владимирская улица, дом 27",1711943,Восточный административный округ,район Перово,"3-я Владимирская улица, дом 27",37.790654,55.754309,пластик
"Искусственная дорожная неровность по адресу Беговая аллея, дом 3А",1711948,Северный административный округ,район Беговой,"Беговая аллея, дом 3А",37.564955,55.783654,пластик
"Искусственная дорожная неровность по адресу Песчаная улица, дом 2А",1711971,Северный административный округ,район Сокол,"Песчаная улица, дом 2А",37.516246,55.803249,пластик
"Искусственная дорожная неровность по адресу Флотская улица, дом 78",1711978,Северный административный округ,Головинский район,"Флотская улица, дом 78",37.513279,55.860064,пластик
"Искусственная дорожная неровность по адресу Пенягинская улица, дом 14",1711984,Северо-Западный административный округ,район Митино,"Пенягинская улица, дом 14",37.360166,55.83658,пластик
"Искусственная дорожная неровность по адресу Малый Кисловский переулок, дом 12/8",1711992,Центральный административный округ,Пресненский район,"Малый Кисловский переулок, дом 12/8",37.602532,55.756452,пластик
"Искусственная дорожная неровность по адресу Трубецкая улица, дом 8, строение 2",1711995,Центральный административный округ,район Хамовники,"Трубецкая улица, дом 8, строение 2",37.574984,55.728343,пластик
"Искусственная дорожная неровность по адресу Новоспасский переулок, дом 11, строение 1",1711999,Центральный административный округ,Таганский район,"Новоспасский переулок, дом 11, строение 1",37.651927,55.733608,пластик
"Искусственная дорожная неровность по адресу Сретенский переулок, дом 1, строение 1",1712004,Центральный административный округ,Красносельский район,"Сретенский переулок, дом 1, строение 1",37.630997,55.764885,пластик
"Искусственная дорожная неровность по адресу Стройковская улица, дом 5",1712005,Центральный административный округ,Таганский район,"Стройковская улица, дом 5",37.67474,55.734031,пластик
"Искусственная дорожная неровность по адресу Тушинская улица, дом 8",1712011,Северо-Западный административный округ,район Покровское-Стрешнево,"Тушинская улица, дом 8",37.450745,55.826763,пластик
"Искусственная дорожная неровность по адресу Товарищеский переулок, дом 21",1712026,Центральный административный округ,Таганский район,"Товарищеский переулок, дом 21",37.665173,55.743512,пластик
"Искусственная дорожная неровность по адресу Трубная улица, дом 36",1712028,Центральный административный округ,Мещанский район,"Трубная улица, дом 36",37.624994,55.772411,пластик
"Искусственная дорожная неровность по адресу город Зеленоград, корпус 1824 (Проектируемый проезд № 898)",2043820,Зеленоградский административный округ,район Крюково,"город Зеленоград, корпус 1824",37.1676343020966,55.9797169281574,пластик
"Искусственная дорожная неровность по адресу Березовая аллея, корпус 424Б",2043852,Зеленоградский административный округ,район Матушкино,"Березовая алле, корпус 424Б",37.2035168961647,55.9955998734487,пластик
"Искусственная дорожная неровность по адресу улица Болдов ручей, корпус 1121",2043854,Зеленоградский административный округ,район Силино,"улица Болдов ручей, корпус 1121",37.1811204507423,55.9960196978321,пластик
"Искусственная дорожная неровность по адресуЯблоневая аллея, корпус 314",2043858,Зеленоградский административный округ,район Савёлки,"Яблоневая аллея, корпус 314",37.2213106687187,55.997235514038,пластик
"Искусственная дорожная неровность по адресу Черноморский бульвар, дом 8",2834214,Южный административный округ,Нагорный район,"Черноморский бульвар, дом 8",37.61168,55.645482,пластик
"Искусственная дорожная неровность по адресу Черноморский бульвар, дом 5",2834215,Южный административный округ,Нагорный район,"Черноморский бульвар, дом 5",37.615251,55.644897,пластик
"Искусственная дорожная неровность на УДС Чертановской улицы с привязкой к адресу Сумской проезд, дом 12, корпус 3",2834216,Южный административный округ,район Чертаново Северное,"Сумской проезд, дом 12, корпус 3",37.605094,55.638051,пластик
"Искусственная дорожная неровность по адресу Чертановская улица, дом 4",2834217,Южный административный округ,район Чертаново Северное,"Чертановская улица, дом 4",37.600562,55.63162,пластик
"Искусственная дорожная неровность по адресу Чертановская улица, дом 7А",2834218,Южный административный округ,район Чертаново Северное,"Чертановская улица, дом 7А",37.6011,55.631396,пластик
"Искусственная дорожная неровность по адресу Ленская улица, дом 6",4479704,Северо-Восточный административный округ,Бабушкинский район,"Ленская улица, дом 6",37.67098,55.866051,пластик
"Искусственная дорожная неровность по адресу Маломосковская улица, дом 7",4479708,Северо-Восточный административный округ,Алексеевский район,"Маломосковская улица, дом 7",37.644341,55.813336,пластик
"Искусственная дорожная неровность по адресу улица Мусоргского, дом 11",4479713,Северо-Восточный административный округ,район Отрадное,"улица Мусоргского , дом 11",37.625796,55.863922,пластик
"Искусственная дорожная неровность по адресу Новгородская улица, дом 38",4479714,Северо-Восточный административный округ,район Лианозово,"Новгородская улица, дом 38",37.581489,55.906169,пластик
"Искусственная дорожная неровность по адресу Новоалексеевская улица, дом 6",4479715,Северо-Восточный административный округ,Алексеевский район,"Новоалексеевская улица, дом 6",37.641357,55.807493,пластик
"Искусственная дорожная неровность по адресу Полярная улица, дом 9",4479721,Северо-Восточный административный округ,район Южное Медведково,"Полярная улица, дом 9",37.63672,55.874303,пластик
"Искусственная дорожная неровность на УДС улицы Церковная Горка с привязкой к адресу проспект Мира, дом 128",4485036,Северо-Восточный административный округ,Алексеевский район,"проспект Мира, дом 128",37.64042,55.818358,пластик
"Искусственная дорожная неровность 1 по адресу Стандартная улица, дом 33",13391315,Северо-Восточный административный округ,Алтуфьевский район,"Стандартная улица, дом 33",37.571363,55.882108,пластик
"Искусственная дорожная неровность 2 по адресу Стандартная улица, дом 33",13391316,Северо-Восточный административный округ,Алтуфьевский район,"Стандартная улица, дом 33",37.573077,55.882496,пластик
"Искусственная дорожная неровность 1 по адресу Старомарьинское шоссе, дом 5",13391317,Северо-Восточный административный округ,район Марьина Роща,"Старомарьинское шоссе, дом 5",37.611237,55.802814,пластик
"Искусственная дорожная неровность 2 по адресу Старомарьинское шоссе, дом 5",13391318,Северо-Восточный административный округ,район Марьина Роща,"Старомарьинское шоссе, дом 5",37.611423,55.803105,пластик
"Искусственная дорожная неровность по адресу Таймырская улица, дом 5",13391321,Северо-Восточный административный округ,Лосиноостровский район,"Таймырская улица, дом 5",37.697058,55.885092,пластик
"Искусственная дорожная неровность по адресу Федоскинская улица, дом 4",13391330,Северо-Восточный административный округ,Ярославский район,"Федоскинская улица, дом 4",37.702934,55.868772,пластик
"Искусственная дорожная неровность по адресу Хибинский проезд, дом 5",13391332,Северо-Восточный административный округ,Ярославский район,"Хибинский проезд, дом 5",37.687233,55.862612,пластик
"Искусственная дорожная неровность по адресу Челюскинская улица, дом 4",13391335,Северо-Восточный административный округ,Лосиноостровский район,"Челюскинская улица, дом 4",37.701913,55.88016,пластик
"Искусственная дорожная неровность по адресу Чукотский проезд, дом 4",13391336,Северо-Восточный административный округ,район Бибирево,"Чукотский проезд, дом 4",37.65154,55.868464,пластик
"Искусственная дорожная неровность по адресу Елецкая улица, дом 15",19644980,Южный административный округ,район Орехово-Борисово Южное,"Елецкая улица, дом 15",37.7332663881877,55.6072293330301,пластик
"Искусственная дорожная неровность по адресу улица Генерала Белова, дом 18",19644982,Южный административный округ,район Орехово-Борисово Южное,"улица Генерала Белова, дом 18",37.7211456545194,55.6085183808295,пластик
"Искусственная дорожная неровность по адресу Ореховый проезд, дом 26, сооружение 1",19644994,Южный административный округ,район Зябликово,"Ореховый проезд, дом 26, сооружение 1",37.7310054543818,55.6143724618114,пластик
"Искусственная дорожная неровность по адресу Борисовский проезд, дом 13",19645014,Южный административный округ,район Орехово-Борисово Северное,"Борисовский проезд, дом 13",37.723109031269,55.6262540311608,пластик
"Искусственная дорожная неровность по адресу Марьинский бульвар, дом 2, строение 2",19645069,Юго-Восточный административный округ,район Марьино,"Марьинский бульвар, дом 2, строение 2",37.7488153247456,55.6480096632555,пластик
"Искусственная дорожная неровность по адресу Батюнинская улица, дом 7",19645084,Юго-Восточный административный округ,район Печатники,"Батюнинская улица, дом 7",37.7058785239577,55.6580620650699,пластик
"Искусственная дорожная неровность по адресу Ослябинский переулок, дом 1, строение 3",19645162,Южный административный округ,Даниловский район,"Восточная улица, дом 4, корпус 1",37.659199,55.713668,пластик
"Искусственная дорожная неровность по адресу 4-й Вешняковский проезд, дом 6",19645182,Юго-Восточный административный округ,Рязанский район,"4-й Вешняковский проезд, дом 6",37.79501101306,55.7188116572681,пластик
"Искусственная дорожная неровность по адресу Садовническая улица, дом 82 - дом 73, строение 1",19645222,Центральный административный округ,район Замоскворечье,"Садовническая улица, дом 82 - дом 73, строение 1",37.642445,55.736219,пластик
"Искусственная дорожная неровность по адресу Абельмановская улица, дом 9, строение 9",19645224,Центральный административный округ,Таганский район,"Абельмановская улица, дом 9, строение 9",37.6726513229201,55.7357011683037,пластик
"Искусственная дорожная неровность по адресу Большой Татарский переулок, дом 4/8",19645227,Центральный административный округ,район Замоскворечье,"Большой Татарский переулок, дом 4/8",37.6377182328359,55.7362979907065,пластик
"Искусственная дорожная неровность по адресу Садовническая улица, дом 72 - дом 74",19645237,Центральный административный округ,район Замоскворечье,"Садовническая улица, дом 72 - дом 74",37.6411583348097,55.7393344312193,пластик
"Искусственная дорожная неровность по адресу Новорогожская улица, дом 32, строение 1",19645238,Центральный административный округ,Таганский район,"Новорогожская улица, дом 32, строение 1",37.6906729172132,55.7395161102415,пластик
"Искусственная дорожная неровность по адресу Большой Трёхсвятительский переулок, дом 3",19645268,Центральный административный округ,Басманный район,"Большой Трёхсвятительский переулок, дом 3",37.6461725573508,55.7551772043376,пластик
"Искусственная дорожная неровность по адресу Милютинский переулок, дом 18",19645289,Центральный административный округ,Красносельский район,"Милютинский переулок, дом 18",37.6322,55.764791,пластик
"Искусственная дорожная неровность по адресу Докучаев переулок, дом 7, строение 1",19645299,Центральный административный округ,Красносельский район,"Докучаев переулок, дом 7, строение 1",37.643072,55.774141,пластик
"Искусственная дорожная неровность по адресу улица Берзарина, дом 8",19645313,Северо-Западный административный округ,район Хорошёво-Мнёвники,"улица Берзарина, дом 8",37.4914305595457,55.787861781224,пластик
"Искусственная дорожная неровность по адресу улица Берзарина, дом 4",19645314,Северо-Западный административный округ,район Хорошёво-Мнёвники,"улица Берзарина, дом 4",37.4953732374799,55.7883581452607,пластик
"Искусственная дорожная неровность по адресу 1-я Квесисская улица, дом 8",19645324,Северный административный округ,Савёловский район,"1-я Квесисская улица, дом 8",37.5815531151602,55.7938245650148,пластик
"Искусственная дорожная неровность по адресу Стрелецкая улица, дом 10",19645327,Северо-Восточный административный округ,район Марьина Роща,"Стрелецкая улица, дом 10",37.601149,55.795889,пластик
"Искусственная дорожная неровность по адресу Полтавская улица, дом 8",19645329,Северный административный округ,Савёловский район,"Полтавская улица, дом 8",37.573162,55.796791,пластик
"Искусственная дорожная неровность по адресу Полковая улица, дом 3",19645333,Северо-Восточный административный округ,район Марьина Роща,"Полковая улица, дом 3",37.6064044523366,55.798169609833,пластик
"Искусственная дорожная неровность по адресу улица Острякова, дом 7",19645338,Северный административный округ,Хорошёвский район,"улица Острякова, дом 7",37.5253460856867,55.7996272284983,пластик
"Искусственная дорожная неровность по адресу Строгинский бульвар, дом 12",19645350,Северо-Западный административный округ,район Строгино,"Строгинский бульвар, дом 12",37.3987012313172,55.8046507683663,пластик
"Искусственная дорожная неровность по адресу улица Исаковского, дом 16, корпус 1, строение 1",19645369,Северо-Западный административный округ,район Строгино,"улица Исаковского, дом 16, корпус 1, строение 1",37.410051,55.813047,пластик
"Искусственная дорожная неровность по адресу Врачебный проезд, дом 12",19645371,Северо-Западный административный округ,район Покровское-Стрешнево,"Врачебный проезд, дом 12",37.4586834702981,55.8132916810125,пластик
"Искусственная дорожная неровность по адресу улица Кибальчича, дом 12, корпус 1",19645376,Северо-Восточный административный округ,Алексеевский район,"улица Кибальчича, дом 12, корпус 1",37.6537742755582,55.8158048658998,пластик
"Искусственная дорожная неровность по адресу Байкальская улица, дом 36",19645386,Восточный административный округ,район Гольяново,"Байкальская улица, дом 36",37.806717,55.817015,пластик
"Искусственная дорожная неровность по адресу улица Константинова, дом 28",19645392,Северо-Восточный административный округ,Алексеевский район,"улица Константинова, дом 28",37.658103025147,55.8189846899982,пластик
"Искусственная дорожная неровность по адресу улица Кашёнкин Луг, дом 2",19645402,Северо-Восточный административный округ,район Марфино,"улица Кашёнкин Луг, дом 2",37.6001178596203,55.8248573822035,пластик
"Искусственная дорожная неровность по адресу улица Клары Цеткин, дом 27",19645403,Северный административный округ,район Коптево,"улица Клары Цеткин, дом 27",37.5163340331445,55.8249405179231,пластик
"Искусственная дорожная неровность по адресу Сахалинская улица, дом 11",19645405,Восточный административный округ,район Гольяново,"Сахалинская улица, дом 11",37.8165974368109,55.8273253723002,пластик
"Искусственная дорожная неровность по адресу Ростокинская улица, дом 8",19645413,Северо-Восточный административный округ,район Ростокино,"Ростокинская улица, дом 8",37.6646176093841,55.8333570921588,пластик
"Искусственная дорожная неровность по адресу улица Василия Петушкова, дом 23, строение 2",19645423,Северо-Западный административный округ,район Южное Тушино,"улица Василия Петушкова, дом 23, строение 2",37.4046342803753,55.8395381417397,пластик
"Искусственная дорожная неровность по адресу улица Василия Петушкова, дом 23",19645425,Северо-Западный административный округ,район Южное Тушино,"улица Василия Петушкова, дом 23",37.4028318341139,55.8402625953558,пластик
"Искусственная дорожная неровность по адресу Отрадная улица, дом 1",19645460,Северо-Восточный административный округ,район Отрадное,"Отрадная улица, дом 1",37.6040115910496,55.8590654660388,пластик
"Искусственная дорожная неровность по адресу улица Вилиса Лациса, дом 29, корпус 1, сооружение 4",19645465,Северо-Западный административный округ,район Северное Тушино,"улица Вилиса Лациса, дом 29, корпус 1, сооружение 4",37.4133129420644,55.8617060547954,пластик
"Искусственная дорожная неровность по адресу улица Санникова, дом 17, строение 2",19645467,Северо-Восточный административный округ,район Отрадное,"улица Санникова, дом 17, строение 2",37.599384109408,55.8629457826505,пластик
"Искусственная дорожная неровность по адресу улица Коминтерна, дом 16/5",19645475,Северо-Восточный административный округ,Бабушкинский район,"улица Коминтерна, дом 16/5",37.6792282744923,55.8639733570792,пластик
"Искусственная дорожная неровность по адресу Ленская улица, дом 21",19645483,Северо-Восточный административный округ,Бабушкинский район,"Ленская улица, дом 21",37.6585269392313,55.8675060593051,пластик
"Искусственная дорожная неровность по адресу улица Римского-Корсакова, дом 4",19645488,Северо-Восточный административный округ,район Отрадное,"улица Римского-Корсакова, дом 4",37.5917124896951,55.8702390630623,пластик
"Искусственная дорожная неровность 2 по адресу улица Римского-Корсакова, дом 10",19645497,Северо-Восточный административный округ,район Отрадное,"улица Римского-Корсакова, дом 10",37.5989465373382,55.8725527466733,пластик
"Искусственная дорожная неровность по адресу Полярная улица, дом 3, корпус 1",19645498,Северо-Восточный административный округ,район Южное Медведково,"Полярная улица, дом 3, корпус 1",37.6373554706663,55.8730017046463,пластик
"Искусственная дорожная неровность по адресу 2-я Напрудная улица, дом 9",19645511,Северо-Восточный административный округ,Лосиноостровский район,"2-я Напрудная улица, дом 9",37.6882664805857,55.8781437018951,пластик
"Искусственная дорожная неровность по адресу улица Молодцова, дом 16А",19645513,Северо-Восточный административный округ,район Южное Медведково,"улица Молодцова, дом 16А",37.628638,55.879418,пластик
"Искусственная дорожная неровность по адресу Икшинская улица, дом 12",19645522,Северный административный округ,Дмитровский район,"Икшинская улица, дом 12",37.5372105066483,55.8858663878051,асфальт
"Искусственная дорожная неровность по адресу Новгородская улица, дом 5",19645542,Северо-Восточный административный округ,район Лианозово,"Новгородская улица, дом 5",37.576721,55.894223,пластик
"Искусственная дорожная неровность по адресу Новгородская улица, дом 9",19645544,Северо-Восточный административный округ,район Лианозово,"Новгородская улица, дом 9",37.5798182338863,55.8954178749387,пластик
"Искусственная дорожная неровность по адресу Каргопольская улица, дом 13",19700086,Северо-Восточный административный округ,район Отрадное,"Каргопольская улица, дом 13",37.5930711951556,55.8646318348187,пластик
"Искусственная дорожная неровность по адресу Шенкурский проезд, дом 8",19700090,Северо-Восточный административный округ,район Бибирево,"Шенкурский проезд, дом 8",37.590991,55.893208,пластик
"Искусственная дорожная неровность по адресу Аргуновская улица, дом 12, строение 23",46564035,Северо-Восточный административный округ,Останкинский район,"Аргуновская улица, дом 12, строение 23",37.6203804379336,55.8175953769198,пластик
"Искусственная дорожная неровность на УДС 2-ого Ходынского проезда с привязкой к адресу Ходынский бульвар, дом 7",46565040,Северный административный округ,Хорошёвский район,"Ходынский бульвар, дом 7 ",37.529768,55.784872,пластик
"Искусственная дорожная неровность по адресу Большой Кисловский переулок между домом 4, строение 1 и домом 4, строение 2",55778449,Центральный административный округ,Пресненский район,"Большой Кисловский переулок между домом 4, строение 1 и домом 4, строение 2",37.606063,55.754106,пластик
"Искусственная дорожная неровность по адресу улица Плющиха, дом 39/40",55795772,Центральный административный округ,район Хамовники,"улица Плющиха, дом 39/40",37.576631,55.740073,пластик
"Искусственная дорожная неровность по адресу улица Тимура Фрунзе, дом 3",55801807,Центральный административный округ,район Хамовники,"улица Тимура Фрунзе, дом 3",37.591414,55.733008,пластик
"Искусственная дорожная неровность по адресу улица Талалихина, дом 20",55804312,Центральный административный округ,Таганский район,"улица Талалихина, дом 20",37.678386,55.734337,пластик
"Искусственная дорожная неровность по адресу переулок Чернышевского, дом 4, строение 1",55815272,Центральный административный округ,Тверской район,"переулок Чернышевского, дом 4, строение 1",37.608221,55.782291,пластик
"Искусственная дорожная неровность по адресу улица Верхняя Масловка, дом 26",55829209,Северный административный округ,Савёловский район,"Верхняя Масловка улица, дом 26",37.558917,55.797862,пластик
"Искусственная дорожная неровность по адресу улица Сальвадора Альенде, дом 6",55845919,Северный административный округ,район Сокол,"улица Сальвадора Альенде, дом 6",37.506313,55.795609,пластик
"Искусственная дорожная неровность по адресу улица Генерала Белова, дом 35",55970910,Южный административный округ,район Орехово-Борисово Южное,"улица Генерала Белова, дом 35",37.722923,55.610559,пластик
"Искусственная дорожная неровность на УДС улицы Церковная Горка с привязкой к адресу улица Кибальчича, дом 3А",56001470,Северо-Восточный административный округ,Алексеевский район,"улица Кибальчича, дом 3А",37.642112,55.818135,пластик
"Искусственная дорожная неровность по адресу Студеный проезд, дом 22-24",56030893,Северо-Восточный административный округ,район Северное Медведково,"Студеный проезд, дом 22-24",37.66658,55.89322,пластик
"Искусственная дорожная неровность по адресу Сухонская улица, дом 1-5",56033417,Северо-Восточный административный округ,район Северное Медведково,"Сухонская улица, дом 1-5",37.653011,55.87471,пластик
"Искусственная дорожная неровность по адресу улица Тихомирова, дом 10",56038154,Северо-Восточный административный округ,район Северное Медведково,"улица Тихомирова, дом 10",37.652504,55.885582,пластик
"Искусственная дорожная неровность по адресу улица Тихомирова, дом 8",56040659,Северо-Восточный административный округ,район Северное Медведково,"улица Тихомирова, дом 8",37.64885,55.885048,пластик
"Искусственная дорожная неровность по адресу улица Фонвизина, дом 5",56043047,Северо-Восточный административный округ,Бутырский район,"улица Фонвизина, дом 5",37.58327,55.820263,пластик
"Искусственная дорожная неровность на УДС Учинской улицы с привязкой к адресу улица Софьи Ковалевской, дом 18А",57285542,Северный административный округ,Дмитровский район,"улица Софьи Ковалевской, дом 18А",37.536461,55.887025,пластик
"Искусственная дорожная неровность по адресу проезд от Осташковской улицы до Староватутинского проезда с привязкой к адресу Осташковская улица, дом 7, корпус 6",57285562,Северо-Восточный административный округ,Бабушкинский район,"Осташковская улица, дом 7 - дом 7, корпус 6",37.677334,55.876237,пластик
"Искусственная дорожная неровность на УДС 5-го Новоостанкинского проезда с привязкой к адресу 3-я Новоостанкинская улица, дом 6",57286481,Северо-Восточный административный округ,Останкинский район,"3-я Новоостанкинская улица, дом 6 ",37.626503,55.817367,пластик
"Искусственная дорожная неровность на УДС улицы Авиаконструктора Яковлева с привязкой к адресу улица Усиевича, дом 31А",57286488,Северный административный округ,район Аэропорт,"улица Усиевича, дом 31А ",37.516087,55.807556,пластик
"Искусственная дорожная неровность по адресу улица Усиевича, дом 6",57287909,Северный административный округ,район Аэропорт,"улица Усиевича, дом 6",37.530834,55.804753,пластик
"Искусственная дорожная неровность по адресу Шипиловская улица, дом 53, корпус 2",171627997,Южный административный округ,район Зябликово,"Шипиловская улица, дом 53, корпус 2",37.745944,55.622022,пластик
"Искусственная дорожная неровность по адресу Ярославская улица, дом 14",171628001,Северо-Восточный административный округ,Алексеевский район,"Ярославская улица, дом 14",37.65013,55.82364,пластик
"Искусственная дорожная неровность по адресу Брошевский переулок, дом 21",277993873,Центральный административный округ,Таганский район,"Брошевский переулок, дом 21",37.672369,55.735521,пластик
"Искусственная дорожная неровность по адресу улица Декабристов, дом 29",323411293,Северо-Восточный административный округ,район Отрадное,"улица Декабристов, дом 29",37.610047,55.862505,пластик
"Искусственная дорожная неровность по адресу проезд Русанова, дом 31, корпус 2",628292548,Северо-Восточный административный округ,район Свиблово,"проезд Русанова, дом 31, корпус 2",37.63789,55.855812,пластик
"Искусственная дорожная неровность по адресу улица Седова, дом 12А",628292549,Северо-Восточный административный округ,район Свиблово,"улица Седова, дом 12А",37.637828,55.854299,пластик
"Искусственная дорожная неровность по адресу улица Ротерта, дом 5",628292551,Северо-Восточный административный округ,Ярославский район,"улица Ротерта, дом 5",37.723907,55.873573,пластик
"Искусственная дорожная неровность на УДС улицы Проходчиков с привязкой к адресу Ярославское шоссе, дом 114, корпус 2",628292552,Северо-Восточный административный округ,Ярославский район,"Ярославское шоссе, дом 114, корпус 2",37.70895192,55.86634483,пластик
"Искусственная дорожная неровность на УДС улицы Проходчиков с привязкой к адресу Ярославское шоссе, дом 118, корпус 4",628292553,Северо-Восточный административный округ,Ярославский район,"Ярославское шоссе, дом 118, корпус 4",37.71243799,55.86833549,пластик
"Искусственная дорожная неровность по адресу улица Расковой, дом 14-17",628292556,Северный административный округ,район Беговой,"улица Расковой, дом 14-17",37.57517866,55.7854088,пластик
"Искусственная дорожная неровность по адресу Рогачёвский переулок, дом 3, строение 1",628292558,Северный административный округ,Бескудниковский район,"Рогачёвский переулок, дом 3, строение 1",37.55192482,55.8681579,пластик
"Искусственная дорожная неровность Юннатов улица, дом 1",628292566,Северный административный округ,Савёловский район," Юннатов улица, дом 1",37.56411624,55.7974783,пластик
"Искусственная дорожная неровность по адресу Дубнинская улица, дом 20, корпус 1",628293544,Северный административный округ,район Восточное Дегунино,"Дубнинская улица, дом 20, корпус 1",37.56022448,55.87153586,пластик
"Искусственная дорожная неровность по адресу Волгоградский проспект, дом 164, корпус 2",628293547,Юго-Восточный административный округ,район Выхино-Жулебино,"Волгоградский проспект, дом 164, корпус 2",37.80863269,55.69386077,пластик
"Искусственная дорожная неровность по адресу Волгоградский проспект, дом 168, строение 4",628293549,Юго-Восточный административный округ,район Выхино-Жулебино,"Волгоградский проспект, дом 168, строение 4",37.80902222,55.69083039,пластик
"Искусственная дорожная неровность по адресу Марьинский бульвар, дом 5",628293555,Юго-Восточный административный округ,район Марьино,"Марьинский бульвар, дом 5",37.75081697,55.64907244,пластик
"Искусственная дорожная неровность по адресу Марьинский бульвар, дом 8",628293557,Юго-Восточный административный округ,район Марьино,"Марьинский бульвар, дом 8",37.76267695,55.65160955,пластик
"Искусственная дорожная неровность по адресу Марьинский бульвар, дом 9",628293559,Юго-Восточный административный округ,район Марьино,"Марьинский бульвар, дом 9",37.76188949,55.65226616,пластик
"Искусственная дорожная неровность по адресу Новочеркасский бульвар, дом 41, корпус 7",628293560,Юго-Восточный административный округ,район Марьино,"Новочеркасский бульвар, дом 41, корпус 7",37.73733733,55.64771942,пластик
"Искусственная дорожная неровность по адресу Боровая улица, дом 7 (10к1-к2)",628293569,Юго-Восточный административный округ,район Лефортово,"Боровая улица, дом 7",37.71447206,55.77123758,пластик
"Искусственная дорожная неровность по адресу улица Васильцовский Стан, дом 10, корпус 1",628293573,Юго-Восточный административный округ,Рязанский район,"улица Васильцовский Стан, дом 10, корпус 1",37.75347896,55.71619847,пластик
"Искусственная дорожная неровность по адресу улица Васильцовский Стан, дом 9",628293574,Юго-Восточный административный округ,Рязанский район,"улица Васильцовский Стан, дом 9",37.75115237,55.71544424,пластик
"Искусственная дорожная неровность по адресу улица Артюхиной, дом 6, корпус 2",628293575,Юго-Восточный административный округ,район Текстильщики,"улица Артюхиной, дом 6, корпус 2",37.7371165,55.70237528,пластик
"Искусственная дорожная неровность по адресу Средняя Первомайская улица, дом 13",628293579,Восточный административный округ,район Восточное Измайлово,"Средняя Первомайская улица, дом 13",37.807883,55.795517,пластик
"Искусственная дорожная неровность по адресу Средняя Первомайская улица, дом 15",628293580,Восточный административный округ,район Восточное Измайлово,"Средняя Первомайская улица, дом 15",37.807883,55.795517,пластик
"Искусственная дорожная неровность по адресу улица Чечулина, дом 14",628293586,Восточный административный округ,район Ивановское,"улица Чечулина, дом 14 ",37.82507211,55.78001018,пластик
"Искусственная дорожная неровность по адресу Новокосинская улица, дом 36",628293587,Восточный административный округ,район Новокосино,"Новокосинская улица, дом 36",37.8691996,55.74287382,пластик
"Искусственная дорожная неровность по адресу улица Бирюсинка, дом 13 корпус 1",628293588,Восточный административный округ,район Гольяново,"улица Бирюсинка, дом 13 корпус 1",37.78092835,55.81170784,пластик
"Искусственная дорожная неровность по адресу Салтыковская улица, дом 41",628293592,Восточный административный округ,район Новокосино,"Салтыковская улица, дом 41",37.87918606,55.74251434,пластик
"Искусственная дорожная неровность по адресу Напольный проезд, дом 12",628293594,Восточный административный округ,район Ивановское,"Напольный проезд, дом 12",37.82790681,55.75752716,пластик
"Искусственная дорожная неровность по адресу Строгинский бульвар, дом 15",628293595,Северо-Западный административный округ,район Строгино,"Строгинский бульвар, дом 15",37.4029173,55.80398777,пластик
"Искусственная дорожная неровность по адресу Строгинский бульвар, дом 5",628293596,Северо-Западный административный округ,район Строгино,"Строгинский бульвар, дом 5",37.39887311,55.80485075,пластик
"Искусственная дорожная неровность по адресу Строгинский бульвар, дом 22",628293597,Северо-Западный административный округ,район Строгино,"Строгинский бульвар, дом 22",37.40246447,55.80358938,пластик
"Искусственная дорожная неровность по адресу улица Исаковского, дом 24, корпус 1",628293599,Северо-Западный административный округ,район Строгино,"улица Исаковского, дом 24, корпус 1",37.41429376,55.81031299,пластик
"Искусственная дорожная неровность по адресу улица Исаковского, дом 2, корпус 1",628293600,Северо-Западный административный округ,район Строгино,"улица Исаковского, дом 2, корпус 1",37.39480448,55.81903392,пластик
"Искусственная дорожная неровность по адресу улица Таллинская, дом 13-17",628293601,Северо-Западный административный округ,район Строгино,"улица Таллинская, дом 13",37.40165552,55.79961923,пластик
"Искусственная дорожная неровность по адресу улица Таллинская, дом 16-20",628293602,Северо-Западный административный округ,район Строгино,"улица Таллинская, дом 16",37.40207158,55.79926534,пластик
"Искусственная дорожная неровность по адресу улица Барышиха, дом 17",628293605,Северо-Западный административный округ,район Митино,"улица Барышиха, дом 17",37.35061643,55.84415074,пластик
"Искусственная дорожная неровность по адресу улица Буженинова, дом 22",628293617,Восточный административный округ,район Преображенское,"улица Буженинова, дом 22",37.70879872,55.79047361,пластик
"Искусственная дорожная неровность по адресу Большой факельный переулок, дом 24",857151101,Центральный административный округ,Таганский район,"Большой Факельный переулок, дом 24",37.66645,55.740618,пластик
"Искусственная дорожная неровность по адресу Хилков переулок, дом 3А",857151108,Центральный административный округ,район Хамовники,"Хилков переулок, дом 3А",37.598079,55.737193,пластик
"Искусственная дорожная неровность по адресу улица Полбина, дом 44",857151152,Юго-Восточный административный округ,район Печатники,"улица Полбина, дом 44",37.727023,55.680265,пластик
"Искусственная дорожная неровность по адресу Измайловский бульвар, дом 7, корпус 1",857151163,Восточный административный округ,район Измайлово,"Измайловский бульвар, дом 7, корпус 1",37.785378,55.797574,пластик
"Искусственная дорожная неровность по адресу улица Константина Федина, дом 14",857151164,Восточный административный округ,район Северное Измайлово,"улица Константина Федина, дом 14",37.796741,55.806176,пластик
"Искусственная дорожная неровность по адресу Нижний Журавлев переулок, дом 3",857152595,Восточный административный округ,район Соколиная Гора,"Нижний Журавлев переулок, дом 3",37.706476,55.783497,пластик
"Искусственная дорожная неровность по адресу Средняя Первомайская улица, дом 48",857152755,Восточный административный округ,район Восточное Измайлово,"Средняя Первомайская улица, дом 48",37.816722,55.795273,пластик
Искусственная дорожная неровность по адресу Фрязевская улица дом 13А,857152863,Восточный административный округ,район Новогиреево,"Фрязевская улица, дом 13А",37.826006,55.746368,пластик
"Искусственная дорожная неровность по адресу Открытое шоссе, дом 15",857152969,Восточный административный округ,район Метрогородок,"Открытое шоссе, дом 15",37.743301,55.817795,пластик
"Искусственная дорожная неровность по адресу улица Генерала Белова, дом 4",857153076,Южный административный округ,район Орехово-Борисово Северное,"улица Генерала Белова, дом 4",37.716006,55.623428,пластик
"Искусственная дорожная неровность по адресу Мещерский переулок, дом 4",857153336,Юго-Восточный административный округ,Рязанский район,"Мещерский переулок, дом 4 ",37.778353,55.715844,пластик
"Искусственная дорожная неровность по адресу Мещерский переулок, дом 10",857153462,Юго-Восточный административный округ,Рязанский район,"Мещерский переулок, дом 10",37.781389,55.71663,пластик
"Искусственная дорожная неровность по адресу 1-я улица Текстильщиков, дом 5/8",857153538,Юго-Восточный административный округ,район Текстильщики,"1-я улица Текстильщиков, дом 5/8",37.73711,55.701328,пластик
"Искусственная дорожная неровность по адресу Потешная улица, дом 5А",889176548,Восточный административный округ,район Преображенское,"Потешная улица, дом 5А",37.702706,55.801086,пластик
"Искусственная дорожная неровность по адресу Хабаровская улица, дом 14, корпус 1",889176558,Восточный административный округ,район Гольяново,"Хабаровская улица, дом 14, корпус 1",37.825345,55.822843,пластик
"Искусственная дорожная неровность по адресу улица Римского-Корсакова, владение 12",926244440,Северо-Восточный административный округ,район Отрадное,"улица Римского-Корсакова, владение 12",37.604752,55.874126,пластик
"Искусственная дорожная неровность по адресу улица Мерянка, дом 169, корпус 8",926244678,Северо-Восточный административный округ,район Северный,"улица Мерянка, дом 169, корпус 8",37.539048,55.931328,пластик
"Искусственная дорожная неровность по адресу Милютинский переулок, дом 7А - дом 12",933087853,Центральный административный округ,Красносельский район,"Милютинский переулок, дом 7А - дом 12",37.631908,55.762991,пластик
"Искусственная дорожная неровность по адресу улица Петровка, дом 23/10",933860472,Центральный административный округ,Тверской район,"улица Петровка, дом 23/10",37.615513,55.766095,пластик
"Искусственная дорожная неровность по адресу улица Юности, дом 6",1016063180,Зеленоградский административный округ,район Савёлки,"улица Юности, дом 6",37.22731,55.996887,пластик
"Искусственная дорожная неровность по адресу улица Александровка, корпус 1432",1016063183,Зеленоградский административный округ,район Крюково,"улица Александровка, корпус 1432",37.153832,55.990024,пластик
"Искусственная дорожная неровность по адресу улица Михайловка, корпус 1420",1016063189,Зеленоградский административный округ,район Крюково,"улица Михайловка, корпус 1420",37.145293,55.988133,пластик
"Искусственная дорожная неровность по адресу Проектируемый проезд 4914, корпус 225А",1016063190,Зеленоградский административный округ,район Матушкино,"Проектируемый проезд 4914, корпус 225А",37.203957,56.00181,пластик
"Искусственная дорожная неровность по адресу 1-я Останкинская улица , дом 37/39",1045590110,Северо-Восточный административный округ,район Марфино,"1-я Останкинская улица , дом 37/39",37.628039,55.823865,пластик
"Искусственная дорожная неровность по адресу Палехская улица, дом 11, корпус 2",1045590125,Северо-Восточный административный округ,Ярославский район,"Палехская улица, дом 11, корпус 2",37.697142,55.866539,пластик
"Искусственная дорожная неровность по адресу Суздальская улица, дом 8Б",1047297060,Восточный административный округ,район Новокосино,"Суздальская улица, дом 8Б",37.846471,55.73489,пластик
"Искусственная дорожная неровность по адресу Черноморский бульвар, дом 4, корпус 1",1047297070,Южный административный округ,Нагорный район,"Черноморский бульвар, дом 4, корпус 1",37.616679,55.645462,пластик
"Искусственная дорожная неровность 1 по адресу улица Кедрова, дом 7, корпус 1",1079261808,Юго-Западный административный округ,Академический район,"улица Кедрова, дом 7, корпус 1",37.567153,55.685418,пластик
"Искусственная дорожная неровность 1 по адресу улица Кедрова, дом 6, корпус 1",1079261809,Юго-Западный административный округ,Академический район,"улица Кедрова, дом 6, корпус 1",37.56684,55.685526,пластик
"Искусственная дорожная неровность по адресу Керченская улица, дом 2",1079261810,Юго-Западный административный округ,район Зюзино,"Керченская улица, дом 2",37.586715,55.659556,пластик
"Искусственная дорожная неровность по адресу Новочерёмушкинская улица, дом 1/14, корпус 3",1079261811,Юго-Западный административный округ,Академический район,"Новочерёмушкинская улица, дом 1/14, корпус 3",37.588673,55.690264,пластик
"Искусственная дорожная неровность по адресу улица Академика Волгина, дом 9, корпус 1",1079261812,Юго-Западный административный округ,район Коньково,"улица Академика Волгина, дом 9, корпус 1",37.519276,55.652647,пластик
"Искусственная дорожная неровность 1 по адресу улица Академика Волгина, дом 12, корпус 1",1079261813,Юго-Западный административный округ,район Коньково,"улица Академика Волгина, дом 12, корпус 1",37.506997,55.643381,пластик
"Искусственная дорожная неровность по адресу Черноморский бульвар, дом 6",1079261814,Южный административный округ,Нагорный район,"Черноморский бульвар, дом 6",37.614954,55.645455,пластик
"Искусственная дорожная неровность по адресу Фруктовая улица, дом 5, корпус 1",1079261815,Южный административный округ,Нагорный район,"Фруктовая улица, дом дом 5, корпус 1",37.615025,55.659671,пластик
"Искусственная дорожная неровность по адресу Чонгарский бульвар, дом 11",1079261816,Южный административный округ,Нагорный район,"Чонгарский бульвар, дом 11",37.61022,55.653108,пластик
"Искусственная дорожная неровность по адресу Ялтинская улица, дом 10",1079261817,Южный административный округ,Нагорный район,"Ялтинская улица, дом 10",37.610127,55.648473,пластик
"Искусственная дорожная неровность по адресу Ялтинская улица, дом 1, корпус 2",1079261818,Южный административный округ,Нагорный район,"Ялтинская улица, дом 1, корпус 2",37.610188,55.649534,пластик
"Искусственная дорожная неровность по адресу Амурская улица, дом 21",1079261819,Восточный административный округ,район Гольяново,"Амурская улица, дом 21",37.789727,55.813294,пластик
"Искусственная дорожная неровность по адресу Амурская улица, дом 34",1079261820,Восточный административный округ,район Гольяново,"Амурская улица, дом 34",37.778908,55.812774,пластик
"Искусственная дорожная неровность по адресу Хабаровская улица, дом 17/13",1079261821,Восточный административный округ,район Гольяново,"Хабаровская улица, дом 17/13",37.82493,55.824177,пластик
"Искусственная дорожная неровность по адресу Бульвар Матроса Железняка, дом 12",1079261823,Северный административный округ,район Коптево,"Бульвар Матроса Железняка, дом 12",37.525636,55.828939,пластик
"Искусственная дорожная неровность по адресу улица Героев Панфиловцев, дом 1/2",1079261826,Северо-Западный административный округ,район Северное Тушино,"улица Героев Панфиловцев, дом 1/2",37.439078,55.852105,пластик
"Искусственная дорожная неровность по адресу Столовый переулок, дом 6",1079261828,Центральный административный округ,Пресненский район,"Столовый переулок, дом 6",37.595505,55.75637,пластик
"Искусственная дорожная неровность на УДС 2-го Гончаровского переулка с привязкой к адресу улица Гончарова, дом 6",1079261829,Северо-Восточный административный округ,Бутырский район,"улица Гончарова, дом 6",37.589714,55.815373,пластик
"Искусственная дорожная неровность по адресу Библиотечная улица, дом 19 - дом 23",1079261830,Центральный административный округ,Таганский район,"Библиотечная улица, дом 19",37.674401,55.744604,пластик
"Искусственная дорожная неровность по адресу Бульвар Матроса Железняка, дом 9",1079261832,Северный административный округ,район Коптево,"Бульвар Матроса Железняка, дом 9",37.525169,55.829027,пластик
"Искусственная дорожная неровность по адресу Новоспасский переулок, дом 9",1083254819,Центральный административный округ,Таганский район,"Новоспасский переулок, дом 9",37.653101,55.733947,пластик
"Искусственная дорожная неровность по адресу Алтуфьевское шоссе, дом 91",1083254885,Северо-Восточный административный округ,район Лианозово,"Алтуфьевское шоссе, дом 91",37.586087,55.896318,пластик
"Искусственная дорожная неровность по адресу Новгородская улица, дом 24",1083254923,Северо-Восточный административный округ,район Лианозово,"Новгородская улица, дом 24",37.580043,55.90113,пластик
"Искусственная дорожная неровность по адресу 1-я Гражданская улица, дом 94",2387305129,Восточный административный округ,район Богородское,"1-я Гражданская улица, дом 94",37.708697,55.808253,пластик
"Искусственная дорожная неровность по адресу Погонный проезд, дом 27",2387305270,Восточный административный округ,район Богородское,2-й проезд Подбельского,37.716662,55.81898,пластик
"Искусственная дорожная неровность по адресу Косинская улица, дом 22",2387305271,Восточный административный округ,район Вешняки,"Косинская улица, дом 22",37.831701,55.717586,пластик
"Искусственная дорожная неровность по адресу 15-я Парковая улица, дом 31А",2387305272,Восточный административный округ,район Восточное Измайлово,"15-я Парковая улица, дом 31А",37.81882,55.800826,пластик
"Искусственная дорожная неровность по адресу 16-я Парковая улица, дом 6",2387305273,Восточный административный округ,район Восточное Измайлово,"16-я Парковая улица, дом 6",37.823881,55.798661,пластик
"Искусственная дорожная неровность по адресу Нижняя Первомайская улица, дом 25",2387305274,Восточный административный округ,район Восточное Измайлово,"Нижняя Первомайская улица, дом 25",37.800831,55.791078,пластик
"Искусственная дорожная неровность по адресу Нижняя Первомайская улица, дом 29",2387305275,Восточный административный округ,район Восточное Измайлово,"Нижняя Первомайская улица, дом 29",37.803201,55.79112,пластик
"Искусственная дорожная неровность по адресу Амурская улица, дом 1А, корпус 1",2387305276,Восточный административный округ,район Гольяново,"Амурская улица, дом 1А, корпус 2",37.759943,55.807692,пластик
"Искусственная дорожная неровность по адресу Сахалинская улица, дом 4",2387305277,Восточный административный округ,район Гольяново,"Сахалинская улица, дом 4",37.816696,55.826031,пластик
"Искусственная дорожная неровность по адресу Измайловский бульвар, дом 19",2387305278,Восточный административный округ,район Измайлово,"Измайловский бульвар, дом 19",37.790506,55.796962,пластик
Искусственная дорожная неровность по адресу Коренная улица,2387305279,Восточный административный округ,район Новогиреево,Коренная улица,37.777494,55.740319,пластик
"Искусственная дорожная неровность по адресу улица Перовская, дом 66, корпус 2",2387305280,Восточный административный округ,район Новогиреево,улица Новотетерки,37.798598,55.743049,пластик
"Искусственная дорожная неровность по адресу Саперный проезд, дом 2",2387305281,Восточный административный округ,район Новогиреево,"Саперный проезд, дом 2",37.821908,55.756955,пластик
"Искусственная дорожная неровность по адресу Открытое шоссе, дом 4, строение 1",2387305283,Восточный административный округ,район Богородское,"Открытое шоссе, дом 4, строение 1",37.729272,55.80948,пластик
"Искусственная дорожная неровность по адресу Открытое шоссе, дом 6А строение 2 (Проезд от Тюменской улицы до дома 15 по Большой Черкизовской улице)",2387305284,Восточный административный округ,район Преображенское,"Открытое шоссе, дом 6А строение 2",37.732518,55.808104,пластик
"Искусственная дорожная неровность по адресу улица Бориса Жигуленкова, дом 9, корпус 1",2387305285,Восточный административный округ,район Соколиная Гора,"улица Бориса Жигуленкова, дом 9, корпус 1",37.732262,55.774738,пластик
"Искусственная дорожная неровность по адресу улица Ибрагимова, дом 7/32",2387305287,Восточный административный округ,район Соколиная Гора,"улица Ибрагимова, дом 7/32",37.730713,55.782089,пластик
"Искусственная дорожная неровность по адресу 5-я Парковая улица, дом 39, корпус 2",2387305288,Восточный административный округ,район Измайлово,"5-я Парковая улица, дом 39, корпус 2",37.787853,55.801259,пластик
"Искусственная дорожная неровность по адресу Утренняя улица, дом 14, корпус 2",2387305417,Восточный административный округ,район Новогиреево,"Утренняя улица, дом 14, корпус 2",37.79464,55.747082,пластик
"Искусственная дорожная неровность по адресу Кирпичная улица, дом 12",2387305481,Восточный административный округ,район Соколиная Гора,"Кирпичная улица, дом 12",37.725174,55.777668,пластик
"Искусственная дорожная неровность по адресу Сиреневый бульвар, дом 4, строение 4",2387305499,Восточный административный округ,район Измайлово,"Искусственная дорожная неровность по адресу Сиреневый бульвар, дом 4, строение 4",37.764912,55.802384,пластик
"Искуственная дорожная неровность по адресу Лухмановская улица, дом 37",2606388500,Восточный административный округ,район Косино-Ухтомский,"Лухмановская улица, дом 37",37.910286,55.72419,пластик
"Искуственная дорожная неровность по адресу Зеленый проспект, дом 74А",2606388508,Восточный административный округ,район Новогиреево,"Зеленый проспект, дом 74А",37.829422,55.749761,пластик
"Искуственная дорожная неровность по адресу улица Новотетерки, дом 1, корпус 1",2606388510,Восточный административный округ,район Новогиреево,"улица Новотетерки, дом 1, корпус 1",37.798596,55.743044,пластик
"Искуственная дорожная неровность по адресу Саперный проезд, дом 2",2606388511,Восточный административный округ,район Новогиреево,"Саперный проезд, дом 2",37.821777,55.756969,пластик
"Искуственная дорожная неровность по адресу Утренняя улица, дом 14, корпус 2",2606388525,Восточный административный округ,район Новогиреево,"Утренняя улица, дом 14, корпус 2",37.79461,55.747094,пластик
"Искуственная дорожная неровность по адресу Салтыковская, дом 37, корпус 2",2606388540,Восточный административный округ,район Новокосино,"Салтыковская, дом 37, корпус 2",37.8777,55.741435,пластик
"Искуственная дорожная неровность по адресу Кирпичная улица, дом 12",2606388549,Восточный административный округ,район Соколиная Гора,"Кирпичная улица, дом 12",37.72515,55.777633,пластик
"Искуственная дорожная неровность по адресу Митинская улица, дом 21 (дублёр)",2606388550,Северо-Западный административный округ,район Митино,"Митинская улица, дом 21",37.365645,55.844057,пластик
"Искуственная дорожная неровность по адресу Митинская улица, дом 25 (дублёр)",2606388551,Северо-Западный административный округ,район Митино,"Митинская улица, дом 25",37.364005,55.844681,пластик
"Искуственная дорожная неровность по адресу 1-й Пенягинский проезд, дом 3",2606388552,Северо-Западный административный округ,район Митино,"1-й Пенягинский проезд, дом 3",37.351321,55.831868,пластик
"Искуственная дорожная неровность по адресу 11-я Парковая улица, дом 48",2606388553,Восточный административный округ,район Северное Измайлово,"11-я Парковая улица, дом 48",37.804966,55.806613,пластик
"Искуственная дорожная неровность по адресу улица Маршала Катукова, дом 4, корпус 1",2635460636,Северо-Западный административный округ,район Строгино,"улица Маршала Катукова, дом 4, корпус 1",37.400889,55.811339,пластик
"Искуственная дорожная неровность по адресу улица Маршала Катукова, дом 5",2635461309,Северо-Западный административный округ,район Строгино,"улица Маршала Катукова, дом 5",37.397027,55.812751,пластик
"Искуственная дорожная неровность 1 по адресу Таллинская улица, дом 2",2635461509,Северо-Западный административный округ,район Строгино,"Таллинская улица, дом 2",37.392205,55.799999,пластик
"Искуственная дорожная неровность 2 по адресу Таллинская улица, дом 2",2635461723,Северо-Западный административный округ,район Строгино,"Таллинская улица, дом 2",37.392098,55.800202,пластик
"Искуственная дорожная неровность по адресу улица Твардовского, дом 12, корпус 1",2635461957,Северо-Западный административный округ,район Строгино,"улица Твардовского, дом 12, корпус 1  ",37.399151,55.794608,пластик
"Искусственная дорожная неровность по адресу улица Добролюбова, дом 12/7кБ",2645623931,Северо-Восточный административный округ,Бутырский район,улица Добролюбова. дом 12/7кБ,37.594238,55.811317,пластик
"Искусственная дорожная неровность 1 по адресу Юрловский проезд, дом 25",2645623958,Северо-Восточный административный округ,район Отрадное,"Юрловский проезд, дом 25",37.614903,55.874009,пластик
"Искусственная дорожная неровность 2 по адресу Юрловский проезд, дом 25",2645623994,Северо-Восточный административный округ,район Отрадное,"Юрловский проезд, дом 25",37.614619,55.874179,пластик
"Искуственная дорожная неровность по адресу Верхняя Первомайская улица, дом 7",2645624012,Восточный административный округ,район Измайлово,"Верхняя Первомайская улица, дом 7",37.78029,55.799107,пластик
"Искусственная дорожная неровность по адресу Волоцкой переулок, дом 3",2645624017,Северо-Западный административный округ,район Митино,"Волоцкой переулок, дом 3",37.348214,55.833097,пластик
"Искусственная дорожная неровность по адресу Перекопская улица, дом 36",2694278576,Юго-Западный административный округ,район Черёмушки,"Перекопская улица, дом 36",37.564485,55.661117,пластик
"Искусственная дорожная неровность по адресу улица Перекопская улица, дом 27, корп. 1",2694278577,Юго-Западный административный округ,район Черёмушки,"улица Перекопская улица, дом 27, корп. 1",37.565058,55.660813,пластик
"Искусственная дорожная неровность по адресу Новочерёмушкинская улица, дом 61",2694278578,Юго-Западный административный округ,район Черёмушки,"Новочерёмушкинская улица, дом 61",37.565919,55.669093,пластик
"Искусственная дорожная неровность по адресу Новочерёмушкинская улица, дом 53А",2694278580,Юго-Западный административный округ,район Черёмушки,"Новочерёмушкинская улица, дом 53А",37.568763,55.671762,пластик
"Искусственная дорожная неровность по адресу Новочерёмушкинская улица, дом 48, строение 2",2694278582,Юго-Западный административный округ,район Черёмушки,"Новочерёмушкинская улица, дом 48, строение 2",37.567818,55.671617,пластик
"Искусственная дорожная неровность 2 по адресу Новочерёмушкинская улица, дом 50",2694278584,Юго-Западный административный округ,район Черёмушки,"Новочерёмушкинская улица, дом 50",37.565444,55.669439,пластик
"Искусственная дорожная неровность по адресу Новочерёмушкинская улица, дом 62, корпус 1",2694278585,Юго-Западный административный округ,район Черёмушки," Новочерёмушкинская улица, дом 62, корпус 1",37.561511,55.664563,пластик
"Искусственная дорожная неровность 1 по адресу улица Кедрова, дом 21",2694278586,Юго-Западный административный округ,Академический район," улица Кедрова, дом 21",37.576879,55.682148,пластик
"Искусственная дорожная неровность 2 по адресу улица Кедрова, дом 21",2694278587,Юго-Западный административный округ,Академический район," улица Кедрова, дом 21",37.576525,55.682267,пластик
"Искусственная дорожная неровность по адресу улица Кедрова, дом 13, корпус 1",2694278588,Юго-Западный административный округ,Академический район,"улица Кедрова, дом 13, корпус 1",37.571949,55.683789,пластик
"Искусственная дорожная неровность по адресу улица Кедрова, дом 9/5",2694278589,Юго-Западный административный округ,Академический район,"улица Кедрова, дом 9/5",37.571554,55.683921,пластик
"Искусственная дорожная неровность по адресу Перекопская улица, дом 32",2694278592,Юго-Западный административный округ,район Черёмушки,"Перекопская улица, дом 32",37.56808,55.661141,пластик
"Искусственная дорожная неровность по адресу Перекопская улица, дом 30",2694278593,Юго-Западный административный округ,район Черёмушки,"Перекопская улица, дом 30",37.569253,55.661187,пластик
"Искусственная дорожная неровность по адресу Перекопская улица, дом 28",2694278594,Юго-Западный административный округ,район Черёмушки,"Перекопская улица, дом 28",37.570668,55.661198,пластик
"Искусственная дорожная неровность по адресу Перекопская улица, дом 19",2694278595,Юго-Западный административный округ,район Черёмушки,"Перекопская улица, дом 19",37.571569,55.661069,пластик
"Искусственная неровность на УДС улицы Ефремова с привязкой к адресу 3-я Фрунзенская улица, дом 19",2694278597,Центральный административный округ,район Хамовники,"3-я Фрунзенская улица, дом 19",37.571115,55.723215,пластик
"Искусственная неровность по адресу улица Ефремова, дом 19, корпус 1",2694278598,Центральный административный округ,район Хамовники,"улица Ефремова, дом 19, корпус 1",37.570387,55.722882,пластик
"Искусственная дорожная неровность 1 по адресу улица 1-я Северная линия, дом 3",2694278599,Северо-Восточный административный округ,район Северный,"улица 1-я Северная линия, дом 3",37.555427,55.943793,пластик
"Искусственная дорожная неровность 2 по адресу улица 1-я Северная линия, дом 3",2694278600,Северо-Восточный административный округ,район Северный,"улица 1-я Северная линия, дом 3",37.555192,55.94373,пластик
"Искусственная дорожная неровность 1 по адресу улица 6-я Северная линия, дом 1",2694278601,Северо-Восточный административный округ,район Северный,"улица 6-я Северная линия, дом 1",37.55293,55.937785,пластик
"Искусственная дорожная неровность 2 по адресу улица 6-я Северная линия, дом 1",2694278602,Северо-Восточный административный округ,район Северный,"улица 6-я Северная линия, дом 1",37.552685,55.937936,пластик
"Искусственная дорожная неровность 1 по адресу улица 7-я Северная линия, дом 2",2694278603,Северо-Восточный административный округ,район Северный,"улица 7-я Северная линия, дом 2",37.550978,55.939605,пластик
"Искусственная дорожная неровность 2 по адресу улица 7-я Северная линия, дом 2",2694278604,Северо-Восточный административный округ,район Северный,"улица 7-я Северная линия, дом 2",37.550495,55.939267,пластик
"Искусственная дорожная неровность 1 по адресу 1-я Напрудная улица, дом 3",2694278605,Северо-Восточный административный округ,Лосиноостровский район,"1-я Напрудная улица, дом 3",37.68885,55.876874,пластик
"Искусственная дорожная неровность 2 по адресу 1-я Напрудная улица, дом 3",2694278606,Северо-Восточный административный округ,Лосиноостровский район,"1-я Напрудная улица, дом 3",37.689084,55.877066,пластик
"Искусственная дорожная неровность по адресу Стартовая улица, дом 17",2694278607,Северо-Восточный административный округ,Лосиноостровский район,"Стартовая улица, дом 17",37.696467,55.887203,асфальт
"Искусственная дорожная неровность 1 на УДС Анадырского проезда с привязкой к адресу Стартовая улица, дом 79",2694278608,Северо-Восточный административный округ,Лосиноостровский район,"Стартовая улица, дом 79",37.712355,55.883793,пластик
"Искусственная дорожная неровность 2 на УДС Анадырского проезда с привязкой к адресу Стартовая улица, дом 79",2694278609,Северо-Восточный административный округ,Лосиноостровский район,"Стартовая улица, дом 79",37.712998,55.883468,пластик
"Искусственная дорожная неровность 1 по адресу Шушенская улица, дом 5",2694278610,Северо-Восточный административный округ,Лосиноостровский район,"Шушенская улица, дом 5",37.684891,55.869646,пластик
"Искусственная дорожная неровность 2 по адресу Шушенская улица, дом 5",2694278611,Северо-Восточный административный округ,Лосиноостровский район,"Шушенская улица, дом 5",37.684497,55.869832,пластик
"Искусственная дорожная неровность 1 по адресу Таймырская улица, дом 3",2694278615,Северо-Восточный административный округ,Лосиноостровский район,"Таймырская улица, дом 3",37.698427,55.884687,пластик
"Искусственная дорожная неровность 2 по адресу Таймырская улица, дом 3",2694278616,Северо-Восточный административный округ,Лосиноостровский район,"Таймырская улица, дом 3",37.698925,55.884675,пластик
"Искусственная дорожная неровность 1 по адресу Таймырская улица, дом 6",2694278617,Северо-Восточный административный округ,Лосиноостровский район,"Таймырская улица, дом 6",37.705811,55.884526,пластик
"Искусственная дорожная неровность 2 по адресу Таймырская улица, дом 6",2694278618,Северо-Восточный административный округ,Лосиноостровский район,"Таймырская улица, дом 6",37.706247,55.884522,пластик
"Искусственная дорожная неровность по адресу Анадырский проезд, дом 5",2694278619,Северо-Восточный административный округ,Лосиноостровский район,"Анадырский проезд, дом 5",37.678713,55.859936,пластик
"Искусственная дорожная неровность по адресу улица Вешних Вод, дом 10, строение 3",2694278621,Северо-Восточный административный округ,Лосиноостровский район,"улица Вешних Вод, дом 10, строение 3",37.700512,55.861402,пластик
"Искусственная дорожная неровность по адресу Изумрудная улица, дом 24, корпус 1",2694278623,Северо-Восточный административный округ,Лосиноостровский район,"Изумрудная улица, дом 24, корпус 1",37.685135,55.872831,асфальт
"Искусственная дорожная неровность по адресу Изумрудная улица, дом 48, корпус 1",2694278624,Северо-Восточный административный округ,Лосиноостровский район,"Изумрудная улица, дом 48, корпус 1",37.693788,55.878644,пластик
"Искусственная дорожная неровность 1 по адресу улица Коминтерна, дом 46",2694278625,Северо-Восточный административный округ,Лосиноостровский район,"улица Коминтерна, дом 46",37.690585,55.871372,пластик
"Искусственная дорожная неровность 2 по адресу улица Коминтерна, дом 46",2694278626,Северо-Восточный административный округ,Лосиноостровский район,"улица Коминтерна, дом 46",37.690398,55.871237,пластик
"Искусственная дорожная неровность 1 по адресу улица Коминтерна, дом 22, корпус 1",2694278627,Северо-Восточный административный округ,Лосиноостровский район,"улица Коминтерна, дом 22, корпус 1",37.68252,55.86611,пластик
"Искусственная дорожная неровность 2 по адресу улица Коминтерна, дом 22, корпус 1",2694278628,Северо-Восточный административный округ,Лосиноостровский район,"улица Коминтерна, дом 22, корпус 1",37.682017,55.865775,пластик
"Искусственная дорожная неровность 1 по адресу улица Коминтерна, дом 3, корпус 1",2694278629,Северо-Восточный административный округ,Лосиноостровский район,"улица Коминтерна, дом 3, корпус 1",37.676567,55.862236,пластик
"Искусственная дорожная неровность 2 по адресу улица Коминтерна, дом 3, корпус 1",2694278630,Северо-Восточный административный округ,Лосиноостровский район,"улица Коминтерна, дом 3, корпус 1",37.676223,55.862021,пластик
"Искусственная дорожная неровность по адресу улица Летчика Бабушкина, дом 22",2694278631,Северо-Восточный административный округ,Лосиноостровский район,"улица Летчика Бабушкина, дом 22",37.67508,55.865852,пластик
"Искусственная дорожная неровность по адресу улица Летчика Бабушкина, дом 24",2694278632,Северо-Восточный административный округ,Лосиноостровский район,"улица Летчика Бабушкина, дом 24",37.675106,55.866139,пластик
Искусственная дорожная неровность 1 по адресу Осташковская улица (в районе Осташковского моста),2694278633,Северо-Восточный административный округ,Лосиноостровский район,Осташковская улица (в районе Осташковского моста),37.675114,55.883963,пластик
Искусственная дорожная неровность 2 по адресу Осташковская улица (в районе Осташковского моста),2694278634,Северо-Восточный административный округ,Лосиноостровский район,Осташковская улица (в районе Осташковского моста),37.675053,55.884249,пластик
"Искусственная дорожная неровность 1 по адресу Янтарный проезд, дом 15",2694278635,Северо-Восточный административный округ,Лосиноостровский район,"Янтарный проезд, дом 15",37.683578,55.868957,пластик
"Искусственная дорожная неровность 2 по адресу Янтарный проезд, дом 15",2694278636,Северо-Восточный административный округ,Лосиноостровский район,"Янтарный проезд, дом 15",37.683847,55.86912,пластик
"Искусственная дорожная неровность 2 по адресу улица Академика Волгина, дом 12, корпус 1",2694278669,Юго-Западный административный округ,район Черёмушки,"улица Академика Волгина, дом 12, корпус 1",37.566744,55.662615,пластик
"Искусственная дорожная неровность по адресу Новочерёмушкинская улица, дом 57",2694278684,Юго-Западный административный округ,район Черёмушки,"Новочерёмушкинская улица, дом 57",37.566384,55.66955,пластик
"Искусственная дорожная неровность по адресу Новочерёмушкинская улица, дом 42А",2694278688,Юго-Западный административный округ,район Черёмушки,"Новочерёмушкинская улица, дом 42А",37.569179,55.672917,пластик
"Искусственная дорожная неровность 1 по адресу Новочерёмушкинская улица, дом 50",2694278694,Юго-Западный административный округ,район Черёмушки,"Новочерёмушкинская улица, дом 50",37.566554,55.670431,пластик
"Искусственная дорожная неровность 2 по адресу улица Кедрова, дом 7, корпус 1",2694278701,Юго-Западный административный округ,Академический район,"улица Кедрова, дом 7, корпус 1",37.567367,55.685376,пластик
"Искусственная дорожная неровность 2 по адресу улица Кедрова, дом 6, корпус 1",2694278709,Юго-Западный административный округ,Академический район,"улица Кедрова, дом 6, корпус 1",37.566685,55.685595,пластик
"Искусственная дорожная неровность по адресу улица Дмитрия Разумовского, дом 2307Б",2694278714,Зеленоградский административный округ,район Крюково,"улица Дмитрия Разумовского, дом 2307Б",37.18948,55.963753,пластик
"Искусственная дорожная неровность по адресу улица Коминтерна, дом 54, корпус 1, строение 2",2694278717,Северо-Восточный административный округ,Лосиноостровский район,"улица Коминтерна, дом 54, корпус 1, строение 2",37.695489,55.874894,пластик
"Искусственная дорожная неровность 2 по адресу Норильская улица, дом 4",2694278723,Северо-Восточный административный округ,Лосиноостровский район,"Норильская улица, дом 4",37.695607,55.876685,пластик
"Искусственная дорожная неровность по адресу 2-я Напрудная улица, дом 13",2694278729,Северо-Восточный административный округ,Лосиноостровский район,"2-я Напрудная улица, дом 13",37.690947,55.880493,пластик
"Искусственная дорожная неровность по адресу Анадырский проезд, дом 9",2694278740,Северо-Восточный административный округ,Лосиноостровский район,"Анадырский проезд, дом 9",37.680267,55.861145,пластик
"Искусственная дорожная неровность 2 по адресу улица Вешних Вод, дом 8, корпус 1",2694278747,Северо-Восточный административный округ,Лосиноостровский район,"улица Вешних Вод, дом 8, корпус 1",37.69995,55.861017,пластик
"Искуственная дорожная неровность по адресу 2-й Южнопортовый проезд, дом 2",2707531190,Юго-Восточный административный округ,Южнопортовый район," 2-й Южнопортовый проезд, дом 2",37.676004,55.700644,пластик
"Искусственная дорожная неровность по адресу Михневская улица, дом 2Б, строение 9",2707531192,Южный административный округ,район Бирюлёво Восточное,"Михневская улица, дом 2Б, строение 9",37.661871,55.582074,асфальт
"Искусственная дорожная неровность по адресу Харьковский проезд, дом 5А",2707531193,Южный административный округ,район Бирюлёво Западное," Харьковский проезд, дом 5А",37.641347,55.594021,асфальт
"Искусственная дорожная неровность на УДС улицы Святослава Рихтера с привязкой к адресу улица Москворечье, дом 31, корпус 2",2707531194,Южный административный округ,район Москворечье-Сабурово,"улица Москворечье, дом 31, корпус 2",37.660531,55.646058,пластик
"Искусственная дорожная неровность на УДС улицы Святослава Рихтера с привязкой к адресу Пролетарский проспект, дом 7, корпус 3",2707531195,Южный административный округ,район Москворечье-Сабурово,"Пролетарский проспект, дом 7, корпус 3",37.660179,55.646281,пластик
"Искусственная дорожная неровность по адресу Ореховый бульвар, дом 71",2707531196,Южный административный округ,район Зябликово," Ореховый бульвар,  дом 71",37.762756,55.62008,пластик
Искусственная дорожная неровность 1 по адресу Прибрежный проезд дом 4,2707531197,Северный административный округ,район Левобережный,Прибрежный проезд дом 4,37.461408,55.872373,пластик
Искусственная дорожная неровность 2 по адресу Прибрежный проезд дом 4,2707531198,Северный административный округ,район Левобережный,Прибрежный проезд дом 4,37.461917,55.87278,пластик
"Искусственная дорожная неровность на УДС Хотьковской улицы с привязкой к адресу Абрамцевская улица, дом 24, корпус 2",2707531199,Северо-Восточный административный округ,район Лианозово,"Абрамцевская улица, дом 24, корпус 2",37.577111,55.904503,пластик
"Искусственная дорожная неровность 1 по адресу улица Генерала Антонова, дом 5, корпус 2",2707531201,Юго-Западный административный округ,район Коньково,"улица Генерала Антонова, дом 5, корпус 2",37.53522,55.644675,пластик
"Искусственная дорожная неровность 2 по адресу улица Генерала Антонова, дом 5, корпус 2",2707531202,Юго-Западный административный округ,район Коньково,"улица Генерала Антонова, дом 5, корпус 2",37.534674,55.644861,пластик
"Искусственная дорожная неровность 2 по адресу улица Генерала Антонова, дом 3",2707531204,Юго-Западный административный округ,район Коньково,"улица Генерала Антонова, дом 3",37.531913,55.645722,пластик
"Искусственная дорожная неровность 1 по адресу улица Академика Капицы, дом 16",2707531205,Юго-Западный административный округ,район Коньково,"улица Академика Капицы, дом 16",37.524688,55.62779,пластик
"Искусственная дорожная неровность по адресу шоссе Энтузиастов, дом 98, корпус 2",2707531207,Восточный административный округ,район Ивановское,"шоссе Энтузиастов, дом 98, корпус 2",37.831007,55.773545,пластик
"Искусственная дорожная неровность по адресу Сиреневый бульвар, дом 1, корпус 5",2707531208,Восточный административный округ,район Измайлово,"Сиреневый бульвар, дом 1, корпус 5",37.765165,55.802398,пластик
"Искусственная дорожная неровность по адресу улица Чечулина, дом 1",2707531209,Восточный административный округ,район Ивановское,"улица Чечулина, дом 1",37.82061,55.779641,пластик
"Искусственная дорожная неровность 1 по адресу улица Фадеева, дом 2",2707531210,Центральный административный округ,Тверской район,"улица Фадеева, дом 2",37.601094,55.773454,пластик
"Искусственная дорожная неровность 2 по адресу улица Фадеева, дом 2",2707531211,Центральный административный округ,Тверской район,"улица Фадеева, дом 2",37.600783,55.773613,пластик
"Искусственная дорожная неровность по адресу Большой Патриарший переулок, дом 12, строение 1",2707531212,Центральный административный округ,Пресненский район,"Большой Патриарший переулок, дом 12, строение 1",37.593448,55.763403,пластик
"Искусственная дорожная неровность 1 по адресу Порядковый переулок, дом 8",2707531213,Центральный административный округ,Тверской район,"Порядковый переулок, дом 8",37.59042,55.786269,пластик
"Искусственная дорожная неровность 1 на УДС Карелина проезда с привязкой к адресу Угловой переулок, дом 2",2707531215,Центральный административный округ,Тверской район,"Угловой переулок, дом 2",37.588687,55.785703,пластик
"Искусственная дорожная неровность по адресу Большой Полуярославский переулок, дом 8",2707531217,Центральный административный округ,Таганский район,"Большой Полуярославский переулок, дом 8",37.663049,55.752352,пластик
"Искусственная дорожная неровность по адресу 2-й Сыромятнический переулок, дом 10",2707531219,Центральный административный округ,Таганский район,"2-й Сыромятнический переулок, дом 10",37.662558,55.752454,пластик
"Искусственная  дорожная неровность на УДС Большомого Полуярославского переулка с привязкой к адресу адресу Наставнический переулок, дом 10/2, строение 1",2707531220,Центральный административный округ,Таганский район,"Наставнический переулок, дом 10/2, строение 1",37.662884,55.752099,пластик
"Искусственная  дорожная неровность по адресу улица Большая Ордынка, дом 15",2707531221,Центральный административный округ,район Замоскворечье,"улица Большая Ордынка, дом 15",37.625039,55.742859,пластик
"Искусственная дорожная неровность на УДС 1-ого Нового переулка с привязкой к адресу Нижняя Красносельская улица, дом 5, строение 10",2707531222,Центральный административный округ,Красносельский район,"Искусственная дорожная неровность на УДС 1-ого Нового переулка с привязкой к адресу Нижняя Красносельская улица, дом 5, строение 10",37.669655,55.779308,пластик
"Искусственная дорожная неровность по адресу улица Воронцово поле, дом 13, строение 2",2707531223,Центральный административный округ,Басманный район,"улица Воронцово поле, дом 13, строение 2",37.654792,55.754495,пластик
"Искусственная дорожная неровность по адресу улица Воронцово поле, дом 18",2707531224,Центральный административный округ,Басманный район,"улица Воронцово поле, дом 18",37.655173,55.754573,пластик
"Искусственная дорожная неровность по адресу Большой Тишинский переулок, дом 22",2707531225,Центральный административный округ,Пресненский район,"Большой Тишинский переулок, дом 22",37.575002,55.769043,пластик
"Искусственная дорожная неровность по адресу Большой Тишинский переулок, дом 24",2707531226,Центральный административный округ,Пресненский район,"Большой Тишинский переулок, дом 24",37.574421,55.76908,пластик
"Искуственная  дорожная  неровность 2 по адресу Молодогвардейская улица, дом 63",2707531231,Западный административный округ,район Кунцево,"Молодогвардейская улица, дом 63",55.733672,37.389676,пластик
"Искуственная дорожная неровность по адресу Таллинская улица, дом 19, корпус 1 (дублер)",2707531234,Северо-Западный административный округ,район Строгино,"Таллинская улица, дом 19, корпус 1",37.4057,55.80016,пластик
"Искуственная дорожная неровность по адресу улица Рословка, дом 6",2707531235,Северо-Западный административный округ,район Митино,"улица Рословка, дом 6",37.359615,55.830913,пластик
"Искуственная дорожная неровность по адресу Сходненская улица, дом 23",2707531236,Северо-Западный административный округ,район Южное Тушино,"Сходненская улица, дом 23",37.439411,55.844351,пластик
"Искуственная дорожная неровность на УДС улицы Фабрициуса с привязкой к адресу Штурвальная улица, дом 20",2707531237,Северо-Западный административный округ,район Южное Тушино,"Штурвальная улица, дом 20",37.44713,55.844771,пластик
"Искуственная дорожная неровность по адресу улица Свободы, дом 51 (дублер)",2707531238,Северо-Западный административный округ,район Южное Тушино,"улица Свободы, дом 51",37.452595,55.848763,пластик
"Искуственная дорожная неровность по адресу улица Берзарина, дом 20",2707531239,Северо-Западный административный округ,район Щукино,"улица Берзарина, дом 20",37.480246,55.788765,пластик
"Искуственная дорожная неровность по адресу 1-я улица Машиностроения, дом 7",2707531252,Юго-Восточный административный округ,Южнопортовый район,"1-я улица Машиностроения, дом 7",37.675077,55.715599,пластик
"Искусственная дорожная неровность по адресу улица Генерала Антонова, дом 7",2707531257,Юго-Западный административный округ,район Коньково,"улица Генерала Антонова, дом 7",37.538198,55.643726,пластик
"Искусственная дорожная неровность 1 по адресу улица Генерала Антонова, дом 3",2707531269,Юго-Западный административный округ,район Коньково,"улица Генерала Антонова, дом 3",37.532585,55.645511,пластик
"Искусственная дорожная неровность 2 по адресу улица Академика Капицы, дом 16",2707531309,Юго-Западный административный округ,район Коньково,"улица Академика Капицы, дом 16",37.524433,55.628014,пластик
"Искусственная дорожная неровность 2 по адресу Порядковый переулок, дом 8",2707531321,Центральный административный округ,Тверской район,"Порядковый переулок, дом 8",37.59046,55.786402,пластик
"Искусственная дорожная неровность 2 на УДС Карелина проезда с привязкой к адресу Угловой переулок, дом 2",2707531328,Центральный административный округ,Тверской район,"Угловой переулок, дом 2",37.589226,55.785665,пластик
"Искусственная дорожная неровность по адресу Большой Полуярославский переулок, дом 10/2, строение 1",2707531500,Центральный административный округ,Таганский район,"Большой Полуярославский переулок, дом 10/2, строение 1",37.662454,55.752215,пластик
"Искуственная  дорожная неровность 1 по адресу Молодогвардейская улица, дом 63",2707531501,Западный административный округ,район Кунцево,"Молодогвардейская улица, дом 63",37.388214,55.733477,пластик
"Искусственная дорожная неровность (приподнятый пешеходный переход) на улице Шолохова с привязкой к адресу улица Шолохова, дом 30",2707531502,Западный административный округ,район Ново-Переделкино,"улица Шолохова, дом 30",37.344071,55.643264,асфальт
"Искусственная дорожная неровность (приподнятый пешеходный переход) на УДС улицы Академика Бармина с привязкой к адресу улица Барклая, дом 5А",2707531503,Западный административный округ,район Филёвский Парк,"улица Барклая, дом 5А",37.503222,55.738662,пластик
